road_name,road_type,longitude,latitude
Muthuswamy Road,primary,80.2844352,13.0852831
,secondary_link,80.2577323,13.0387094
CV Raman Road,secondary,80.254416,13.0350631
Kamarajar Salai,tertiary,80.2599022,13.018654
Kaliamman Koil Street,secondary,80.1934851,13.0557089
Haddows Road,primary,80.2477466,13.0679245
Durgabai Deshmukh Road,primary,80.2589687,13.0082519
Kavingar Bharathidasan Road,secondary,80.2535574,13.0351525
Besant Road,secondary,80.2798381,13.0505402
Loop Road,tertiary,80.2739707,13.0240343
RK Mutt Road,secondary,80.2665819,13.029222
Greams Road,tertiary,80.2544295,13.0630376
,secondary,80.2543613,13.066892
Sardar Patel Road,primary,80.2286092,13.0091943
Velachery Bypass Road,primary,80.2195754,12.9914347
Inner Ring Road,primary,80.2045279,13.0145223
Goudia Mutt Road,secondary,80.2616175,13.0482192
TTK Road,secondary,80.2598607,13.0453213
Kalaingar Karunanidhi Salai,primary,80.2474759,12.8976224
Gandhi Mandapam Road,secondary,80.2431284,13.0241214
RK Mutt Road,secondary,80.2654342,13.0253858
RK Mutt Road,secondary,80.2626659,13.0202745
RK Mutt Road,secondary,80.2630463,13.0214597
Taramani Road,tertiary,80.2517351,12.9862657
,tertiary,80.2434345,12.9812926
4th Main Road,secondary,80.2311871,13.0276423
1st Main Road,secondary,80.2313679,13.0260918
,primary_link,80.201542,13.0762716
Pallavan Salai,secondary,80.276291,13.0770794
Rattan Bazaar Road,secondary,80.282541,13.0883111
Evening Bazaar Road,secondary,80.280899,13.0858418
Broadway Road,secondary,80.2864484,13.0962443
Rasappa Chetty Street,tertiary,80.280899,13.0858418
Evening Bazaar Road,secondary,80.2790854,13.0837083
Pasumpon Muthuramalingar Thevar Salai,secondary,80.2537843,13.0271502
Lakshmi Street,tertiary,80.2208454,13.0351348
Tank Bund Road,secondary,80.2426311,13.0568463
McNichols Road,primary,80.2435118,13.0638279
,primary_link,80.2501962,13.0513046
,primary_link,80.2509799,13.0525591
Cathedral Road,primary,80.251522,13.0518475
,primary_link,80.2509799,13.0525591
Anna Salai (Mount Road),primary,80.2524552,13.0534712
Anna Salai (Mount Road),primary,80.2244405,13.0187266
,primary_link,80.2525012,13.0533907
Alwarpet Flyover,secondary,80.2569984,13.0355274
TTK Road,secondary,80.2583486,13.0408597
,secondary_link,80.2591169,13.0387272
Bharathi Salai,tertiary,80.2772677,13.0581789
Wallajah Road,secondary,80.2807376,13.0642286
,secondary,80.2809677,13.064248
Babu Jagjivanram Salai,tertiary,80.2782735,13.0642773
Swami Sivananda Salai,tertiary,80.2843359,13.0678099
,secondary,80.2110096,13.009488
Alandur Road,secondary,80.2195154,13.0193299
Alandur Road,secondary,80.2103263,13.0085663
St. Mary's Road,secondary,80.2640795,13.029395
St. Mary's Road,secondary,80.2640795,13.029395
Triplicane High Road,secondary,80.2737522,13.0527706
Appu Street,tertiary,80.2746441,13.0289854
Rajaji Salai,primary,80.2845626,13.0694636
Rajaji Salai,primary,80.2891572,13.0827928
Rukmani Lakshmipathi Road,secondary,80.2607313,13.066434
Montieth Road,secondary,80.2567411,13.0695183
Casa Major Road,secondary,80.2560539,13.0687966
Gengu Reddy Road,secondary,80.252516,13.0739651
Harris Bridge,secondary,80.2686407,13.0685231
Rukmani Lakshmipathi Road,tertiary,80.2607313,13.066434
Chari Road,tertiary,80.2324233,13.0703508
Besant Road,secondary,80.2737522,13.0527706
Dr Natesan Road,secondary,80.2743187,13.0434299
,secondary_link,80.2361806,13.0629321
Sterling Road,secondary,80.2433294,13.0657283
RA Puram 2nd Main Road,secondary,80.2543568,13.0271317
Turnbulls Road,tertiary,80.2450844,13.0275807
Nandanam Link Road,tertiary,80.2371576,13.0311621
Sadulla Street,tertiary,80.2369969,13.0331386
South Dhandapani Street,tertiary,80.2331176,13.0346618
Gengu Reddy Road,secondary,80.2524185,13.0738837
Halls Road,secondary,80.257504,13.0745092
,primary,80.2405428,13.0738862
Cathedral Road,primary,80.2564512,13.0460945
,primary_link,80.251161,13.0519536
RajaLaxmi Nagar 3rd Main Road,tertiary,80.217938,12.9842224
Kasturibai Nagar 3rd Cross Street,tertiary,80.2516348,13.0067735
Adyar Flyover,secondary,80.2577905,13.0067676
Sardar Patel Road,primary,80.2577917,13.0066539
Thiru Vi Ka Bridge,primary,80.2592891,13.0147115
Sardar Patel Road,primary,80.2591859,13.0107556
,secondary,80.2594277,13.007651
Thiru Vi Ka Bridge,primary,80.2590537,13.0116503
,primary_link,80.2589687,13.0082519
,primary,80.2591881,13.0116452
Natesan Colony,tertiary,80.2597945,13.035474
CV Raman Road,tertiary,80.2570577,13.034865
Cenotaph 1st Street,tertiary,80.2458868,13.0342924
Warren Road,tertiary,80.2604177,13.0330857
Bakthavachalam Road,tertiary,80.2600554,13.0332825
Desika Road,tertiary,80.2587979,13.0355382
Turnbulls 1st Main Road,tertiary,80.2454439,13.0276119
Thiruvalluvar Salai,tertiary,80.2513739,13.0387852
Lotus Colony 1st Street,tertiary,80.2398596,13.0291007
TTK Road,secondary,80.2498159,13.0288622
Archbishop Mathias Road,tertiary,80.2490265,13.0278423
Alwarpet Street,tertiary,80.2516257,13.0335097
Chitranjan Road,tertiary,80.2495095,13.032961
St. Mary's Road,secondary,80.2501638,13.0293291
Avvai Shanmugam Salai,tertiary,80.268773,13.0475239
TTK 1st Cross,tertiary,80.2525217,13.0324844
Hindi Prachar Sabha Road,tertiary,80.2382686,13.0335189
Burkit Road,secondary,80.2334729,13.0346157
New Boag Road,secondary,80.2307615,13.030776
South West Boag Road,tertiary,80.2370632,13.0319889
3rd Main Road,secondary,80.2328321,13.0279325
Kumaran Colony 1st Street,tertiary,80.2216806,13.0284662
Bazullah Road,tertiary,80.2303773,13.0476602
Cathedral Garden Road,tertiary,80.24958,13.0513771
,tertiary,80.2456064,13.0527693
Casa Major Road,secondary,80.2540178,13.0710827
Madley subway,tertiary,80.2262679,13.0355774
Madley Road,tertiary,80.2277417,13.0352431
Aranganathan Subway,secondary,80.2261679,13.0280355
Kodambakkam Railway Flyover,primary,80.2282857,13.0540563
,tertiary,80.185461,12.9939188
Terminal Link Road,tertiary,80.1666646,12.981805
4th Avenue (Santhi Colony Road),tertiary,80.2101037,13.0825632
5th Avenue,tertiary,80.2100974,13.0832094
Anna Nagar 2nd Avenue,secondary,80.224195,13.0852877
Kilpauk Garden Road,secondary,80.2306084,13.082849
Maniakara Choultry Road,tertiary,80.286846,13.1044895
Ebrahim Shahib street,primary,80.2947831,13.1027889
Ebrahim Sahib Street,primary,80.2935208,13.1018401
,primary,80.2911146,13.102467
Padavattamman Koil Street,secondary,80.2759489,13.1038999
,primary,80.2708892,13.1042712
Cemetry Road,secondary,80.2812929,13.1104606
West Madha Church Street,secondary,80.2941087,13.1086868
Basin Bridge,primary,80.2726308,13.1037814
Flowers Road,tertiary,80.2500603,13.0809584
Gangadeeshwar Koil Street,primary,80.254702,13.0854189
Ritherdon Road,secondary,80.2587891,13.0793192
Vepery Church Road,tertiary,80.2605989,13.0867197
,secondary_link,80.2629632,13.0883726
General Hospital Road,primary,80.271122,13.0810532
Strahans Road,primary,80.2510617,13.0982721
Avadhanam Papier Road,tertiary,80.2586901,13.0904844
Baker Street,tertiary,80.2700194,13.087023
Naval Hospital Road,tertiary,80.266937,13.0807792
Vigneshwara Road,tertiary,80.2662528,13.0903822
Decaster Road,tertiary,80.2605011,13.10265
D'Mellows Salai,secondary,80.2681408,13.0942828
Rangiah Street,tertiary,80.2606331,13.0904816
Vadamalai Pillai Street,tertiary,80.2587029,13.0908619
Tana street,tertiary,80.2550197,13.087708
Mahalingapuram Main Road,secondary,80.2347628,13.0557772
Mangadu - Pattu - Mugalivakkam Road,tertiary,80.1431479,13.0196718
East Jones Road,tertiary,80.2289552,13.0247164
Kothaval Chavadi Street,tertiary,80.21365,13.021969
Jeenis Road,tertiary,80.2245859,13.0198085
Towards Adayar,primary,80.2248824,13.0151863
,primary_link,80.2149099,13.0101861
Inner Ring Road,primary,80.2071224,13.0255753
Kathipara Interchange Ramp,primary_link,80.204415,13.0077567
,primary_link,80.2040544,13.0127185
Guindy Bridge,primary,80.2157351,13.0102073
St Patricks Church Road,tertiary,80.1962405,13.0072853
Kathipara Interchange Flyover,primary,80.2059253,13.0075844
Anna Salai (Mount Road),primary,80.2061372,13.0077549
Maraimalai Adigal Bridge,primary,80.2252306,13.0167311
,secondary,80.2098764,13.0351943
Ramasamy Salai,tertiary,80.1934007,13.0418377
Azhagiriswamy Salai,tertiary,80.1987829,13.0367084
Kamarajar Salai,tertiary,80.2080273,13.0353678
S.O. Balasubramaniam Salai,tertiary,80.2049551,13.0392619
8th Avenue,tertiary,80.213026,13.037435
9th Avenue,tertiary,80.2147425,13.0390659
11th Avenue,secondary,80.2184352,13.0324539
Nagathamman Koil Road,tertiary,80.2098102,13.0299762
Mahatma Gandhi Road,secondary,80.2668883,12.995765
5th Avenue,tertiary,80.2688769,13.0035774
Blue Cross Street,tertiary,80.2641297,13.0080965
East Coast Road,primary,80.259824,12.9871225
Besant Nagar 4th Main Road,tertiary,80.2710428,13.0008946
South Avenue,primary,80.2576927,12.984174
Dr MGR Main Road,secondary,80.2463933,12.9640055
4th Main Road,secondary,80.2575773,12.9832551
Taylors Road,tertiary,80.2380274,13.0765787
Kilpauk Garden Road,secondary,80.243353,13.0822456
Harleys Road,secondary,80.2413964,13.0829009
Balfour Road,secondary,80.2452338,13.0854021
Cooks Road,primary,80.2532302,13.1045757
Medavakkam Tank Road,secondary,80.2432849,13.0878017
Elephant Gate Bridge Road,secondary,80.2695173,13.0922579
Halls Road,tertiary,80.2336168,13.0819456
Halls Road,secondary,80.2336168,13.0819456
New Avadi Road,secondary,80.2336168,13.0819456
Stephensons Salai,secondary,80.2573877,13.1037948
Raji Street,tertiary,80.2313773,13.0885534
Konnur High Road,primary,80.2511085,13.0985966
Strahans Road,secondary,80.2592517,13.0973747
Puthu Farrance Salai,tertiary,80.2595036,13.0986257
Barracks Gate Salai,secondary,80.2598315,13.0998533
Konnur High Road,primary,80.2279272,13.1000561
,secondary,80.2301123,13.1028759
Portious Road,secondary,80.2310587,13.1025415
NMK Street,tertiary,80.2334261,13.0969877
EVR Periyar Salai,primary,80.1824525,13.0704619
Ormes Road,tertiary,80.246283,13.0816642
Stanley Viaduct,secondary,80.2752236,13.0813985
Audiappa Naicken Street,tertiary,80.2850618,13.0914651
,tertiary,80.2757051,13.0927178
Mannady Street,tertiary,80.2865192,13.0968603
Basin Bridge Road,secondary,80.2684607,13.0940109
Ramanan Street,tertiary,80.2774341,13.0932171
Basin Bridge Road,secondary,80.2683907,13.0980788
Pulianthope High Road,secondary,80.2668498,13.0984972
Rajaji Salai,primary,80.2943986,13.1009452
RBI Subway,primary,80.2898644,13.0873133
,primary_link,80.288992,13.0826299
DGS Dhinakaran Road,primary,80.2629394,13.0189973
Irusappa Gramani Street,tertiary,80.2746007,13.0489871
Westcott Road,secondary,80.2654679,13.0582961
2nd Street,tertiary,80.2600563,13.0346969
Karpagambal Nagar Road,secondary,80.2646004,13.0397999
VM Street,tertiary,80.268302,13.0438516
Sivaswamy Salai,tertiary,80.2647314,13.0416723
VM Street,tertiary,80.2695153,13.053389
Pathari Road,tertiary,80.256577,13.0603604
Conron Smith Road,secondary,80.2578927,13.0545149
Gopalapuram 1st Street,tertiary,80.257576,13.0495732
Peters Road,secondary,80.2615778,13.054152
Peters Road,secondary,80.2668862,13.053616
Sathyam Flyover,secondary,80.2557807,13.0546203
Avvai Shanmugam Salai,secondary,80.2616175,13.0482192
Thiru Vi Ka Sundaram High Road,tertiary,80.2679002,13.0427836
Thiruvottriyur High Road,secondary,80.2785044,13.1108377
Basin Bridge Road,primary,80.2706018,13.102947
1st Avenue,secondary,80.2254031,13.0833246
Anna Arch Road,secondary,80.2180203,13.0844994
General Hospital Road,primary,80.2817846,13.082277
Jawaharlal Nehru Road (100 Feet Road),primary,80.1984989,13.0824362
6th Main Road,tertiary,80.2128129,13.0824432
MTC Busway,primary,80.2050526,13.0699705
Rotary Nagar Main Road,tertiary,80.2768863,13.0466354
Srinivasa Road,tertiary,80.259261,13.0222409
North Mada Street,tertiary,80.2680998,13.0345376
Chitrakulam North Street,tertiary,80.2740447,13.0315028
Venkatesa Agraharam Road,tertiary,80.2676212,13.0326562
East Tank Square Street,tertiary,80.2691912,13.032353
Bazaar Road,tertiary,80.2737173,13.0342553
PVK Koil Street,tertiary,80.2739326,13.0391109
South Mada Street,tertiary,80.2708463,13.03198
East Mada Street,tertiary,80.2712414,13.0338855
Foreshore Estate Link,tertiary,80.276778,13.022514
Devanathan Street,secondary,80.2633621,13.0266051
Thandavarayan Street,tertiary,80.2718323,13.0174047
Model School Road,tertiary,80.2532575,13.0540709
Khader Nawaz Khan Road,tertiary,80.2500509,13.0607332
Link Road,tertiary,80.2634504,13.0662681
Gandhi Mandapam Flyover,primary,80.2427147,13.0066507
Sardar Patel Road,primary_link,80.2380038,13.0073267
Ponniamman Koil Road,tertiary,80.2410929,13.0181555
5th Main Road,tertiary,80.2369888,13.0313106
,tertiary,80.2353917,13.0280247
4th Main Road,tertiary,80.2346943,13.0287122
Napier Bridge,primary,80.2846947,13.0694322
East Coast Road,primary,80.2431294,12.8673993
,primary,80.2278862,12.9009094
Vembuli Amman Koil Street,tertiary,80.1853551,12.987937
Suryanarayana Street,primary,80.2925488,13.1145622
70Ft Road,secondary,80.2285248,13.1177239
Kolathur Road,secondary,80.2193333,13.1260513
,tertiary,80.2060919,13.1086624
3rd Main Road,tertiary,80.2043663,13.1088025
,tertiary,80.1385601,13.0374342
,tertiary,80.1385601,13.0374342
Mugalivakkam Main Road,tertiary,80.16633,13.0211562
Valluvar Salai,secondary,80.1830853,13.0245122
Kamarajar Salai,secondary,80.1913259,13.0315002
Vanniyar Street,secondary,80.1926051,13.0466026
,tertiary,80.2280275,13.0540663
Choolaimedu High Road,tertiary,80.2313523,13.0663966
NSK Salai,tertiary,80.2306849,13.0540131
Brindavan Street,secondary,80.2272655,13.0416237
Ellaiamman Kovil Street,tertiary,80.2246533,13.0347191
Ashok Nagar 49th Street,secondary,80.2162822,13.0362179
Vada Agaram Road,tertiary,80.2265647,13.0681721
Razzak Garden Road,tertiary,80.2160144,13.0752497
Kodambakkam Road,secondary,80.2200554,13.0322087
,tertiary,80.220542,13.0358964
Reddy Kuppam Street,tertiary,80.2240221,13.0284845
Pachaiyappan Street,secondary,80.1927627,13.0307214
Pillayar Koil Street,tertiary,80.2027323,13.0317482
Manapakkam Main Road,secondary,80.1829376,13.021186
Manapakkam Main Road,secondary,80.1367546,13.015637
Jones Road,tertiary,80.2234304,13.0252089
80 Feet Road,tertiary,80.1988741,13.0453182
Rajamannar Salai,secondary,80.2055053,13.0426488
PT Rajan Salai,secondary,80.2056033,13.0426093
7th Street,tertiary,80.2149029,13.0419502
7th Avenue,secondary,80.2159372,13.0415669
Arya Gowda Road,secondary,80.220542,13.0358964
7th Avenue,secondary,80.2162822,13.0362179
,tertiary,80.2220416,13.0429082
2nd Avenue,secondary,80.2173384,13.0437768
Brindavan Street Ext,secondary,80.2181081,13.0433032
Thambiah Road,tertiary,80.2245146,13.0409041
Thambiah Road,tertiary,80.2249482,13.0421956
Brindavan Street,secondary,80.2220416,13.0429082
Raju Street,tertiary,80.2219064,13.0423431
18th Avenue,tertiary,80.2110835,13.0383743
Reddy Street,secondary,80.1921185,13.0490354
Kamaraj Salai,tertiary,80.1962097,13.0493031
Gandhi nagar main Road,tertiary,80.1890863,13.0498018
Thangal Street,tertiary,80.1894633,13.0498013
Vembuliamman Koil Street,tertiary,80.1893647,13.0464375
Mari Amman Koil Street,tertiary,80.1920417,13.0397699
Thiruvalluvar Salai,secondary,80.1859977,13.0449255
Gangai Amman Koil Street,tertiary,80.2116712,13.0264298
Thiruvallur Road,tertiary,80.2004394,13.0693418
,tertiary,80.1898401,13.0659554
,tertiary,80.1958953,13.0606154
Ambika street,tertiary,80.2308021,12.9838348
Lakeview Street,tertiary,80.1985794,12.9915007
Nanganallur 6th Main Road,tertiary,80.1882623,12.9807313
College Road,tertiary,80.1882386,12.9864957
Nanganallur 1st Main Road,tertiary,80.1884468,12.9830017
Balusamy Street,tertiary,80.1860198,12.9864621
,tertiary,80.1861958,12.9693429
5th Main Road,tertiary,80.1838303,12.9805756
Nanganallur 5th Main Road,tertiary,80.1853237,12.9811839
Kakkan Nagar Main Road,tertiary,80.2065443,12.9946468
Nehru High Road,tertiary,80.1763832,12.9823537
3rd Main Road,tertiary,80.1766447,12.9857308
3rd Main Road,tertiary,80.176537,12.9831719
Bazaar Road,tertiary,80.2246275,13.0220622
Ponniamman Koil Street,tertiary,80.1972991,12.9794004
MGR Road,tertiary,80.1863216,12.9708655
2nd Main Road,tertiary,80.1933682,12.9896609
Racecourse Road,secondary,80.2163283,13.0104614
Erukkancheri High Road,primary,80.2490276,13.1230214
SIDCO Industrial Estate South Phase Road,secondary,80.2042207,13.0137092
Poonamalle Road,tertiary,80.1986795,13.0193122
City Link Road,tertiary,80.2094718,13.0035057
Grand Southern Trunk Road,primary,80.2059253,13.0075844
Murugappa Street,tertiary,80.1922824,12.9748662
Puzhuthivakkam Road,tertiary,80.1964637,12.9723418
Station Road,primary_link,80.2005058,13.0015169
,tertiary,80.2143479,13.01424
Taramani Link Road,primary,80.2227628,12.9769934
Moovarasampettai Main Road,tertiary,80.1861958,12.9693429
Vaidhyanathan Street,secondary,80.2814725,13.1281801
Jeevarathinam Road,secondary,80.2946209,13.124973
Dr. Ambedkar Road,tertiary,80.1351946,12.9744632
Pozhichalur - Cowl Bazaar Road,tertiary,80.1419999,12.9893424
,secondary,80.2929526,13.1142183
Kannan Street,tertiary,80.2771377,13.1128685
Varadharaja Perumal Koil Street,secondary,80.291602,13.1249976
Jeeva Nagar Main Road,tertiary,80.2915371,13.1408178
Balakrishna Street,tertiary,80.2922811,13.1323739
N Terminus Road,secondary,80.2965635,13.1439001
East Kalmandapam Road,secondary,80.2929526,13.1142183
West Kalmandapam Road,tertiary,80.2925488,13.1145622
Sennaiamman Koil Street,tertiary,80.2894712,13.1332056
Sathyamoorty Nagar Main Road,tertiary,80.2656061,13.1111259
Moorthinagar Street,primary,80.2614697,13.1142316
Muthu Street,primary,80.2635443,13.1140846
,primary,80.2635443,13.1140846
MKB Nagar Central Avenue,secondary,80.2658525,13.1228371
,tertiary,80.2715266,13.1266087
TVK Link Road,secondary,80.266374,13.128518
SIDCO Main Road,secondary,80.2528967,13.1315238
Ethiraj Samy Salai,secondary,80.2499327,13.1294301
3rd Main Road,tertiary,80.2486638,13.1246188
Manali Road,secondary,80.2668269,13.1303038
Meenambal Road,tertiary,80.2586686,13.1361009
Tiruvalluvar Street,tertiary,80.2552256,13.1363654
Kamarajar Salai,tertiary,80.2436058,13.1384475
Tiruvalluvar Street,tertiary,80.2542372,13.1259557
5th Main Road,tertiary,80.2492607,13.1370113
Kodungaiyur Manali Salai,tertiary,80.2479149,13.1374221
,tertiary,80.2569681,13.1539782
Kathivakkam High Road,secondary,80.2759285,13.1164185
Gollavar Agraharam Road,tertiary,80.2891289,13.1157237
Old Jail Road,primary_link,80.2820369,13.105382
Peddu Street,secondary,80.2761249,13.1021067
MKB Nagar East Avenue,secondary,80.2658783,13.1265828
Erukkancheri High Road,primary,80.2621754,13.1173632
Erukkancheri High Road,tertiary,80.2654814,13.1109772
Melpatti Ponappa Street,secondary,80.2595676,13.1133715
Bharathi Road,tertiary,80.2487322,13.1153495
Krishna Doss Road,tertiary,80.2525067,13.1022038
Vepery High Road,secondary,80.2705201,13.0842566
Deputy Mayor Kabalamurthy Road,secondary,80.2734774,13.0740834
West Cooum River Road,tertiary,80.269388,13.0682704
Adithanar Road,secondary,80.2625902,13.0727188
Tondiarpet High Road,secondary,80.2586686,13.1361009
Jambulingam Main Road,secondary,80.2263844,13.1097792
,tertiary,80.2483921,13.1127631
Jawwahar Nagar 1st Main Road,tertiary,80.2316876,13.1124278
Karthikeyan Road,tertiary,80.2242134,13.1145448
9th Street,secondary,80.2273029,13.1133749
Sundara Perumal Koil Street,tertiary,80.2320798,13.1083534
Pallavan Salai,tertiary,80.2374618,13.1221175
Sundara Perumal Koil Street,tertiary,80.2316871,13.1160817
Madhavaram High Road,primary,80.2441092,13.1097153
Jambulingam Main Road,tertiary,80.2255062,13.1098057
Venkatesan Road,tertiary,80.2265599,13.1110937
,tertiary,80.2127283,13.10907
Kolathur Main Road,secondary,80.2110985,13.1168677
Poompuhar Nagar 1st Main Road,secondary,80.2125111,13.1181924
Ramakrishna Link Road,tertiary,80.2031403,13.1138372
Rajamangalam Main Road,tertiary,80.2031403,13.1138372
SIDCO Nagar 4th Main Road,tertiary,80.2049019,13.109129
South Cooum River Road,tertiary,80.2684601,13.0684686
Ethiraj Salai,secondary,80.2590649,13.0643696
Bazullah Road,secondary,80.2330666,13.0474161
Rangarajapuram Main Road,tertiary,80.2215145,13.0478996
4th Avenue,secondary,80.2174054,13.0437362
21st Avenue,tertiary,80.2144691,13.0472146
Corporation Colony Road,tertiary,80.226224,13.0467058
Munusamy Salai,secondary,80.1928108,13.0383029
Thiruvalluvar 1st Street,tertiary,80.1912111,13.0380115
Abusali Street,tertiary,80.1991474,13.0489453
Kalaingar Karunanidhi Road,tertiary,80.2040743,13.0544035
Arunachalam Street,tertiary,80.2038574,13.0480347
Barathidasan Colony Main Road,secondary,80.2008036,13.0314553
Reddy Kuppam Road,secondary,80.2242997,13.0311889
Jayaram Street,secondary,80.2197887,13.0248793
Mosque Street,secondary,80.2195386,13.0222965
70 Feet Road,secondary,80.2274518,13.0304771
Five Furlong Road,secondary,80.2135615,13.0004962
Rosary Church Road,secondary,80.2737173,13.0342553
Sringeri Mutt Road,tertiary,80.2587268,13.0234585
Shastri Nagar 1st Avenue,tertiary,80.2597986,13.0010602
Indira Nagar 3rd Avenue,tertiary,80.2560579,12.9907693
School Road,tertiary,80.1985128,13.0930485
Anna Nagar 6th Avenue,tertiary,80.2165517,13.0923255
18th Main Road,tertiary,80.2065733,13.0946619
Purasawalkam High Road,secondary,80.2504524,13.0858951
,primary,80.25447,13.0823253
Perambur Barracks Salai,secondary,80.2589084,13.0943566
MMDA Colony Main Road,tertiary,80.215652,13.0727055
MMDA Colony Main Road,tertiary,80.2144613,13.0627195
Sterling Avenue,secondary,80.2363844,13.0643375
Nelson Manickam Road,secondary,80.236259,13.0622758
New Colony Main Road,tertiary,80.2018045,12.9897433
Annai Velankanni Road,tertiary,80.2692116,12.9954937
Besant Nagar 1st Avenue,tertiary,80.2653435,13.0002825
Elliot's Beach Promenade,tertiary,80.2722686,13.0026861
Inner Ring Road,primary,80.2117575,13.0318885
Jawaharlal Nehru Road (100 Feet Road),primary,80.1992191,13.0759872
15th Avenue,primary,80.2095977,13.032486
Vanniar Street,tertiary,80.2295595,13.0574698
Periyar Pathi Road,tertiary,80.2213435,13.0602523
Puliyur Main Road,tertiary,80.2241579,13.05722
Trustpuram 2nd Main Road,tertiary,80.2228794,13.0582358
Pulla Avenue,tertiary,80.2249753,13.0774518
Harrington Road,tertiary,80.2332056,13.0700471
Nungambakkam Subway,secondary,80.234412,13.0653109
Periyar Pathai Road,tertiary,80.2213435,13.0602523
Kumaran Nagar Main Road,secondary,80.223944,13.1213702
Balaji Nagar Main Road,secondary,80.2245523,13.124348
Constable Road,tertiary,80.2158553,13.105735
Mariya Nayagam Main Street,tertiary,80.2419024,13.1151292
,tertiary,80.1354236,13.007358
Manapakkam Main Road,secondary,80.1753737,13.0172018
River View Road,tertiary,80.1773783,13.016518
Purasawalkam High Road,primary,80.2504524,13.0858951
Rizwan Road,tertiary,80.2436058,13.1384475
Chinna Sekkadu Road,tertiary,80.2586701,13.1635656
Chakrapani Street Ext,tertiary,80.2225066,13.0456715
Kilpauk Garden Road,secondary,80.2255302,13.0833658
,tertiary,80.2117974,13.0772514
7th Main Road,tertiary,80.2121822,13.0794229
21st Main Road,tertiary,80.206474,13.0927007
Annasalai Street,tertiary,80.2340865,13.0310841
South Usman Road,tertiary,80.2302661,13.0351877
Pasumpon Muthuramalingar Thevar Salai,tertiary,80.2527039,13.0245824
,tertiary,80.2493366,13.0811755
UI Colony 1st Main Road,secondary,80.2278314,13.0539324
,tertiary,80.2213394,13.0463467
Kannadasan Street,tertiary,80.2225785,13.0460911
Railway Border Road,tertiary,80.2285242,13.0412195
North Usman Road,secondary,80.2327276,13.0460119
Cart Track Road,tertiary,80.2213394,13.0463467
Rathnammal Street,secondary,80.2215145,13.0478996
Chakrapani Street,tertiary,80.2256999,13.0448835
Veerasamy Street,tertiary,80.224747,13.0414755
Mahadevan Street,tertiary,80.2210435,13.0382879
Lake View Road,tertiary,80.2208553,13.0353837
Postal Colony 3rd Street,secondary,80.2188628,13.0359889
Ellaiamman Koil Street,tertiary,80.2223651,13.0349284
Eashwaran Koil Street,tertiary,80.2247842,13.0347396
Madley Road,tertiary,80.2249434,13.0356758
Paper Mills Road,secondary,80.242022,13.1084688
Tank Bund Road,secondary,80.2422805,13.1096122
Perambur High Road,primary,80.2533631,13.10483
EVK Sampath Salai,secondary,80.2635124,13.088607
Besant Nagar 2nd Avenue,secondary,80.2670076,12.99952
Perungudi Station Road,tertiary,80.2308512,12.9753697
Pillayar koil street,tertiary,80.2121142,13.0025385
Cart Track Road,tertiary,80.2104953,12.9973492
,tertiary,80.2107792,12.999357
TNHB Main Road,tertiary,80.2095885,12.9906048
Inner Ring Road (Southern Sector),primary,80.1954013,12.9892144
,tertiary,80.2135109,13.0399008
West Sivan Koil Street,primary,80.2118701,13.049848
Kumaran Colony Main Road,tertiary,80.2074086,13.0490675
Nerkundrampadai Road (West),tertiary,80.2092553,13.0547414
,tertiary,80.2037285,13.043174
Inner Ring Road,primary,80.2103689,13.0351031
1st Main Road,tertiary,80.2501487,12.9733802
Subramanya Nagar Street Road,tertiary,80.2402348,12.9473656
,tertiary,80.2473859,12.9461608
Rajiv Gandhi Salai,primary,80.2416182,12.9515257
,tertiary,80.2350759,12.9551696
,tertiary,80.1971548,12.9887147
16th Avenue,tertiary,80.2085318,13.0387459
91st Street,tertiary,80.210856,13.0426539
South Mada Street,tertiary,80.2617658,12.9828731
Binny Road,primary,80.2020426,13.0073801
Kumaran Colony Main Road,tertiary,80.2075268,13.0519988
Dhran Singh Colony 1st Street,tertiary,80.2076974,13.0549758
Sayee Nagar 6th Street,tertiary,80.1955253,13.0598833
Vinayagam Street,tertiary,80.1939434,13.0568172
Velachery MRTS Bridge,primary,80.2164408,12.9647758
Velachery Main Road,secondary,80.221206,12.9775013
Anna Flyover,primary,80.2524389,13.0533394
Mayor Sundar Rao Street,tertiary,80.247566,13.0495744
Music Academy Flyover,primary,80.2577345,13.0457604
,primary,80.2570293,13.0460013
Dr Radhakrishnan Salai,primary,80.2623368,13.044974
d'Silva Road,tertiary,80.2605347,13.0377933
Anna Salai (Mount Road),primary,80.2499002,13.0498371
Raja Muthiah Road,secondary,80.2709194,13.0809633
Muthuswamy Road,primary,80.281023,13.0815726
Frazer Bridge Road,tertiary,80.2841821,13.0853242
Muthuswamy Road,primary,80.2853397,13.0736861
Esplanade,secondary,80.2852912,13.0884768
Pallavan Salai,secondary,80.2754935,13.0816317
Netaji Subhash Chandra Bose Road,secondary,80.2902607,13.0886173
Sunnambu Kolathur,tertiary,80.1989335,12.9485037
,secondary,80.2651477,13.0803737
Raja Annamalai Road,primary,80.2546809,13.0789975
Taravath Madhavan Nair Bridge Road,secondary,80.2581603,13.0754732
EVR Periyar Salai,primary,80.2706397,13.0807831
EVK Sampath Salai,tertiary,80.2628257,13.0801904
Grand Southern Trunk Road,primary,80.2014186,13.0049681
Kathipara Interchange Flyover,primary,80.2057304,13.0075831
Service Road,primary_link,80.158408,12.9769514
Airport Flyover,primary,80.1623359,12.9796951
Grand Southern Trunk Road,primary,80.1715405,12.9843987
,tertiary,80.2065733,13.0946619
Thirumangalam Road,tertiary,80.2012936,13.0948022
Sardar Patel Road,primary,80.2551166,13.0065443
,secondary,80.2597313,13.0073297
Adyar Flyover,primary,80.2591779,13.0105588
Anna Salai (Mount Road),primary,80.2210646,13.0121486
Kathipara Interchange Flyover Ramp,primary_link,80.2033951,13.0080662
Kathipara Interchange Flyover Ramp,primary_link,80.2053162,13.0077418
Taluk Office Road,primary,80.2256714,13.0160587
Maraimalai Adigal Bridge,primary,80.2245501,13.0187755
Guindy Bridge,primary,80.2147387,13.0101593
,secondary_link,80.2383232,13.0440995
Kathipara Interchange Flyover,primary,80.2036735,13.0081079
Sathyam Flyover,secondary,80.2557807,13.0546203
Peters Road,secondary,80.2603352,13.0541933
Royapettah Flyover,secondary,80.2618548,13.0540877
,primary_link,80.2497806,13.0498573
Kathipara Interchange Ramp,primary_link,80.2031043,13.0074079
Kathipara Interchange Ramp,primary_link,80.2037145,13.007102
Kathipara Interchange Flyover,primary,80.2037145,13.007102
Kathipara Interchange Flyover,primary,80.2014241,13.0052305
Inner Ring Road,primary,80.2097334,13.0322179
,secondary,80.2099925,13.0347201
Thambiah Road Ext,tertiary,80.2256999,13.0448835
W Mada Street,tertiary,80.2073585,13.1066253
,tertiary,80.2022484,12.9210395
,tertiary,80.1845345,12.8903683
Nookampalayam Link Road,tertiary,80.2194436,12.8777779
Thazhambur - DLF Road,tertiary,80.207078,12.8483493
Karanai Harijan Colony Road,tertiary,80.2096862,12.8483234
Sunnambu Kolathur Main Road,tertiary,80.1920215,12.9429517
,tertiary,80.2043399,12.942004
,tertiary,80.1899458,12.8852841
Periyar Bridge,primary,80.274623,13.0720436
Anna Salai (Mount Road),primary,80.260419,13.0598792
Anna Salai,primary,80.2754947,13.0728487
Periyar Bridge,primary,80.2755773,13.0727639
,primary_link,80.2786653,13.0756798
,primary_link,80.2790161,13.0762045
Quaid-e-Milleth Bridge,primary,80.2815328,13.0785385
Anna Salai,primary,80.281597,13.0784721
,primary_link,80.2764355,13.0742962
,tertiary,80.2751006,13.0714509
,primary,80.270889,13.0681523
Blackers Road,secondary,80.2692687,13.0683533
Avvai Shanmugam Salai,tertiary,80.2531231,13.0538064
Anna Flyover,primary,80.2523757,13.0534101
Arunachalam Street,secondary,80.2672158,13.0760151
Commander-In-Chief Bridge,secondary,80.2608744,13.0635784
Sterling Road,primary,80.243467,13.0663355
College Road,secondary,80.251937,13.0673742
College Road,secondary,80.2540816,13.0667733
Harrington Road,tertiary,80.2317774,13.0730136
Link Road,tertiary,80.2095396,13.0036245
Chakrapani Street,tertiary,80.2115039,13.0037947
MKN Road,tertiary,80.2095325,13.0060195
Maduvankarai Bridge,tertiary,80.2112851,13.0037404
Padi Flyover,primary,80.1945962,13.1016577
Padi Flyover,primary,80.194611,13.1020739
Padi Flyover,primary,80.1961772,13.0987223
New Avadi Road,primary,80.2065595,13.1018199
Gandhi Mandapam Flyover,primary,80.2393389,13.0070287
,tertiary,80.1642843,12.9357411
,tertiary,80.2609771,13.0183207
DGS Dhinakaran Road,primary,80.2674489,13.0188823
Durgabai Deshmukh Road,primary,80.2617081,13.0187731
Durgabai Deshmukh Road,primary,80.2594146,13.0158395
Santhome High Road,primary,80.2773791,13.0334551
Netaji Subhash Chandra Bose Road,secondary,80.2815146,13.0886274
Netaji Subhash Chandra Bose Road,tertiary,80.2789136,13.0894808
U turn in Guindy,primary,80.2212602,13.012364
Dr Muthulakshmi Salai,secondary,80.256511,13.0015818
Dr Muthulakshmi Salai,secondary,80.2570466,13.0042221
West Avenue Road,primary,80.2513095,12.9879
Kamarajar Salai,primary,80.2781486,13.0370105
,tertiary,80.2764744,13.0432766
Kamarajar Salai,primary,80.2843636,13.0680729
Napier Bridge,primary,80.2842287,13.0681042
Dr Radhakrishnan Salai,primary,80.2796082,13.0432716
,primary,80.262394,13.0448596
Paper Mills Road,secondary,80.2289524,13.1175702
,tertiary,80.2365256,13.1205902
,tertiary,80.2572547,13.1096615
Powder Mills Road,tertiary,80.2668692,13.1020036
Ambedkar Kalloori Salai,secondary,80.2603861,13.1022325
Brightons Road,tertiary,80.2605318,13.1076433
Sundaram Main Road,tertiary,80.2619335,13.1105536
Erukkancheri High Road,primary,80.2691018,13.1073781
Ebrahim Sahib Street,primary,80.2869024,13.1044578
North Terminus Road,primary,80.2910607,13.1058833
Royapuram Harbour Bridge,primary,80.2945262,13.105552
Surya Narayana Road,primary,80.2910332,13.1057541
Royapuram Bridge,primary,80.2908923,13.1045408
Vijayaraghavelu Road,secondary,80.2802967,13.1071671
Parthasarathy Bridge,secondary,80.2784772,13.1106928
,secondary,80.2244021,13.1072632
,secondary,80.2242406,13.1088487
,secondary,80.2255062,13.1098057
,secondary,80.2158553,13.105735
,tertiary,80.2079273,13.1054562
Mounasamy Madam Street,tertiary,80.2060919,13.1086624
Tiruvallur Street,tertiary,80.2102948,13.1083935
Chennai Bhattai Road,tertiary,80.2088156,13.1055721
Loco Works Road,tertiary,80.2265047,13.108668
Mowbrays Road,secondary,80.2568447,13.038166
,primary_link,80.2470513,13.0612456
Pallavaram Flyover,tertiary,80.1534934,12.9682711
Terminal Link Road,tertiary,80.1684447,12.9829661
Nanganallur Road,tertiary,80.1849785,12.9909673
Race Course Interior Road,tertiary,80.2154059,13.0099519
Besant Avenue Road,secondary,80.2597313,13.0073297
Mamabalam Highway,tertiary,80.2318855,13.0541673
,secondary,80.2344877,13.0538466
,tertiary,80.2258048,13.0544655
Link Road,tertiary,80.1914808,13.069084
Duraisamy Road,tertiary,80.214642,13.0505084
10th Avenue,tertiary,80.2126311,13.0347907
Inner Ring Road,primary,80.2118803,13.0348314
Koyambedu Bridge,primary,80.1989207,13.0783154
Jawaharlal Nehru Road (100 Feet Road),primary,80.2118803,13.0348314
Koyambedu Bridge,primary,80.1989258,13.0772399
Deputy Mayor Kabalamurthy Road,tertiary,80.270501,13.0788138
Pantheon Road Flyover,secondary,80.2584729,13.0709678
Rattan Bazaar Road,secondary,80.2808012,13.0858803
North Fort Road,primary,80.2846154,13.0854909
Quaid-e-Milleth Bridge,primary,80.2819299,13.0787772
College Bridge,secondary,80.2547788,13.0672964
College Bridge,secondary,80.2542956,13.066959
,secondary,80.2549684,13.0675773
,secondary_link,80.2553286,13.0680235
Dr. Muthulakshmi Road,secondary,80.2559195,12.9969294
Barbers Bridge,tertiary,80.274416,13.0413657
,tertiary,80.212045,13.0785457
Maduvankarai Bridge,tertiary,80.2118227,13.0773778
Gengu Reddy Subway,secondary,80.2521424,13.0761948
Egmore High Road,secondary,80.253036,13.0741978
Ayya Mudali Street,tertiary,80.2704753,13.0787
RA Puram 3rd Cross Street,tertiary,80.2578605,13.0250019
Madha Nagar Main Road,tertiary,80.1425011,13.0191029
,secondary,80.2743139,13.0716541
Kumalamman Koil Street,secondary,80.2906778,13.1279114
Vaidhyanathan Street,secondary,80.2850317,13.1283864
Vaidhyanathan Bridge,secondary,80.2843753,13.128374
Bazaar Road Subway,tertiary,80.224084,13.0217836
Alandur Road,tertiary,80.222145,13.020725
St Thomas Mount Subway,primary,80.2008989,12.996893
St Thomas Mount Subway,primary,80.2012282,12.9942253
2nd Cross Street,tertiary,80.2071719,12.9913761
Manmadhan House,tertiary,80.2095885,12.9906048
Thiruvallur Street,tertiary,80.2367182,12.9828307
Thiruvallur Street,tertiary,80.2343993,12.9828622
Santhome High Road,primary,80.2674592,13.019
Santhome High Road,primary,80.2722554,13.0227555
Narayana Guru Salai,secondary,80.2608828,13.0876608
Jermiah Road,secondary,80.2629079,13.0855773
Purasaiwalkam Flyover,secondary,80.2582132,13.0869089
Purasaiwalkam Flyover,secondary,80.259132,13.0868879
Purasaiwalkam Flyover,secondary,80.2575066,13.0867127
Narayana Guru Salai,secondary,80.2635124,13.088607
Thiruvalluvar Road,primary,80.2596265,12.9872327
Thiruvalluvar Road,primary,80.2555688,12.9877251
Kuppam Beach Road,tertiary,80.2579716,12.9702562
Thirumalai Pillai Road,secondary,80.2400694,13.045324
Tiruvalluvar Nagar 2nd Avenue,tertiary,80.2633809,12.9740177
,primary_link,80.2488699,13.0506545
Kottivakkam Kuppam Road,tertiary,80.2641322,12.9685685
East Kottur Canal Bank Road,tertiary,80.2488856,13.0104792
Shastri Nagar1st Main Road,tertiary,80.2597986,13.0010602
Ottiambakkam Road,tertiary,80.195688,12.8595997
Medavakkam - Mambakkam - Sembakkam Road,primary,80.1706293,12.8807791
Adyar Gate Club Road,tertiary,80.2497725,13.0287832
Archbishop Mathias Road,tertiary,80.2454557,13.0270077
Nandanam Main Road,tertiary,80.2451043,13.0276243
Brindavan Nagar Main Road,tertiary,80.2048945,12.9839602
Murugappa Street,tertiary,80.1974719,12.9755516
Bazaar Road,secondary,80.2062836,12.9653367
Velachery Main Road,primary,80.2165101,12.9645521
Velachery MRTS Bridge,primary,80.2188214,12.9704804
Velachery Bypass Road,primary,80.2184003,12.9800212
Velachery Main Road,secondary,80.2194071,12.9916774
Taramani Link Road,primary,80.2358986,12.9811546
Eri Karai Street,tertiary,80.2384084,12.9841475
Taramani Link Road,primary,80.2413822,12.9814077
Taramani Link Road,primary,80.251105,12.9803054
Nethaji Road,tertiary,80.2095885,12.9906048
,primary,80.2502488,13.0505526
,primary,80.2004611,13.0021572
Mount - Medavakkam Road,primary,80.2006619,12.9975496
,tertiary,80.2818626,13.1391419
EVR Periyar Salai,primary,80.217631,13.0749351
Thirumangalam – Mogappair Road,primary,80.1986874,13.0871089
Old Trunk Road,tertiary,80.1549287,12.9733007
,tertiary,80.1510817,12.9673639
PT Rajan Salai,secondary,80.2116112,13.0442386
EVR Periyar Salai,primary,80.2223795,13.0741557
Anna Nagar 3rd Avenue,secondary,80.2183124,13.0922173
Anna Nagar 3rd Avenue,secondary,80.2180606,13.0884206
Anna Nagar 2nd Avenue,secondary,80.2209262,13.0845946
Choolaimedu Bridge,tertiary,80.2318254,13.0686565
Choolaimedu High Road,tertiary,80.2316889,13.0678324
Brick Klin Road,primary,80.2514348,13.0979368
Astabujam Naicken Street,tertiary,80.2588649,13.0934773
Eldams Road,secondary,80.2566429,13.0380739
Jawaharlal Nehru Road (100 Feet Road),primary,80.1956193,13.0991315
Padi Flyover,primary,80.1949151,13.1001401
Padi Flyover,primary,80.1946073,13.1001112
,tertiary,80.1984992,13.1030162
Padi Flyover,primary,80.1970853,13.1026341
Thillaiganga Nagar Subway,primary,80.1934215,12.9945224
Gopathi Narayanaswami Road,secondary,80.247162,13.0493144
,tertiary,80.2364621,12.9429076
Mahalingapuram Main Road,secondary,80.2375496,13.0611425
,secondary,80.280742,13.0643907
Wallajah Road,secondary,80.2810075,13.0643994
Anna Flyover,primary,80.2525012,13.0533907
Anna Flyover,primary,80.2498037,13.0499637
RA Puram 2nd Main Road,secondary,80.2602277,13.0270527
Venkatakrishna Road,secondary,80.2604964,13.0269824
Mount - Poonamallee - Avadi Road,primary,80.1170762,13.045387
Kaliamman Koil Street,tertiary,80.1921185,13.0490354
Thiruvallur Road,tertiary,80.1948971,13.0692558
McNichols Road,primary,80.2428254,13.0678839
Munro Bridge,primary,80.2427481,13.0678639
McNichols Road,primary,80.2425442,13.0685686
Munro Bridge,primary,80.2426286,13.0685904
Dr Nair Road,secondary,80.2404968,13.0403078
,primary_link,80.1893678,12.9960315
Turnbulls Road,tertiary,80.2457626,13.0295538
,tertiary,80.2070857,13.0253901
Jawaharlal Nehru Street,tertiary,80.2087146,13.0281827
,tertiary,80.2087146,13.0281827
,tertiary,80.2069983,13.0254279
,tertiary,80.2076907,13.0263723
Jafferkhanpet Bridge,primary,80.2070696,13.0256568
Inner Ring Road,primary,80.2085793,13.0286396
சிட்கா தொழிற்பேட்டை பகுதி,tertiary,80.2061785,13.018522
,tertiary,80.2080104,13.0275058
,tertiary,80.2080104,13.0275058
Mount - Poonamallee - Avadi Road,primary,80.1962898,13.0086232
road to Manapakkam,tertiary,80.1872539,13.0179598
Mount - Poonamallee - Avadi Road,primary,80.1865193,13.0185467
Mount - Poonamallee - Avadi Road,primary,80.1859212,13.0198659
Mount - Poonamallee - Avadi Road,primary,80.1857818,13.0198098
Jafferkhanpet Bridge,primary,80.2086659,13.0286417
Eldams Road,secondary,80.2566429,13.0380739
Jawaharlal Nehru Road (100 Feet Road),primary,80.1991766,13.1201016
Jawaharlal Nehru Road (100 Feet Road),primary,80.1972148,13.1115413
Army Road,tertiary,80.1945979,13.026026
Abraham Bridge,secondary,80.2187109,13.0183082
Alandur Road,secondary,80.2156958,13.0162455
Velachery Main Road,secondary,80.2232552,13.0114027
Anna Salai (Mount Road),primary,80.2170576,13.0109201
Anna Salai (Mount Road),primary,80.2147351,13.010055
North Parade Road,tertiary,80.1971621,13.0056438
RK Shanmugam Salai,tertiary,80.2020389,13.0406519
K Karunanidhi Road,tertiary,80.2014014,13.0363389
Music Academy Flyover,primary,80.262207,13.0449063
Pantheon Road Flyover,secondary,80.2584486,13.0709433
Pantheon Road,secondary,80.2643132,13.0757524
Pantheon Road Flyover,secondary,80.2554482,13.0680811
Ambal Nagar Main,tertiary,80.2030144,13.0181219
Gandhi Nagar Main,tertiary,80.2030144,13.0181219
,tertiary,80.2097595,13.0131072
Corporation Water Works Road,tertiary,80.2124988,13.0144754
Arulayammanpet Main,tertiary,80.2128841,13.0159685
,tertiary,80.2093449,13.0160676
Viswanathapuram Main Road,secondary,80.2272452,13.0508567
Mount - Poonamallee - Avadi Road,primary,80.186646,13.0186289
Sea Shell Avenue,tertiary,80.246365,12.8930579
Panaiyur Kuppam Main Road,tertiary,80.2456145,12.8875374
Defence Colony Road,secondary,80.1962382,13.0142579
Mandaveli Road,tertiary,80.2725864,13.028737
PS Kumarasamy Raja Road,tertiary,80.2581862,13.0186354
Kotturpuram Bridge,secondary,80.2430679,13.0242205
,tertiary,80.2452338,13.0854021
Dr Alagappa Road,secondary,80.2542563,13.081772
Ormes Road,tertiary,80.2437345,13.0823951
,secondary_link,80.2568144,13.0695209
Peters Road,secondary,80.2578927,13.0545149
Musiri Subramanium Road,secondary,80.2573777,13.0388619
,secondary,80.2583616,13.0407049
Cenotaph Road,tertiary,80.2458395,13.0308532
Alwarpet Flyover,secondary,80.2583076,13.0406141
Nelson Manickam Road,secondary,80.2212346,13.072479
Vada Agaram Road,tertiary,80.2256846,13.0671737
Vada Agaram Road,tertiary,80.2256098,13.0669698
Vanniyar Street,tertiary,80.2261973,13.0587169
Vanniyar Street,tertiary,80.2260375,13.0587124
East vanniyar Street,tertiary,80.1924018,13.042688
Anna Main Road,secondary,80.2044229,13.0358933
Anna Main Road,secondary,80.1928175,13.0379885
Ashok Pillar Road,secondary,80.2057589,13.0358165
Ashok Pillar Road,secondary,80.2098429,13.035095
Anna Main Road,secondary,80.2014014,13.0363389
,tertiary,80.276509,13.1192488
Nerkundram Road,tertiary,80.1910397,13.0629243
"kamarajar Salai, AVM Avenue 1st Main Road",tertiary,80.1893569,13.0465137
,tertiary,80.1967892,13.05926
Kamaraj Salai,tertiary,80.1970952,13.0578405
,tertiary,80.1963159,13.0580943
Thirumangalam – Mogappair Road,primary,80.1984533,13.0871073
,secondary,80.2098294,13.0131716
,tertiary,80.1884799,13.0508752
2nd Avenue,secondary,80.2147868,13.0445592
,tertiary,80.2349143,12.9262703
,tertiary,80.2349143,12.9262703
,tertiary,80.2362828,12.9335567
,tertiary,80.2361545,12.9330545
,tertiary,80.239035,12.9293069
,tertiary,80.2349143,12.9262703
,tertiary,80.2058393,13.1187207
Vivekananda Nagar Main Road,secondary,80.2015375,13.123898
Ennore High Road,secondary,80.2859258,13.1482345
Nookampalayam Road,tertiary,80.1987723,12.9007735
,tertiary,80.1977752,12.8895297
Gangai Amman Koil Street,tertiary,80.2116712,13.0264298
"2nd Avenue, Anna Nagar West",secondary,80.2178056,13.0846237
13th Main Road,tertiary,80.2007016,13.0948177
8th Main Road,tertiary,80.2121103,13.0788711
Subbarayan Salai,tertiary,80.2647002,13.033926
Venkatesa Agraharam Road,tertiary,80.26434,13.0332046
Venkatesa Agraharam Road,tertiary,80.2641822,13.0333683
,secondary,80.2660479,13.0266395
Erukkancheri High Road,primary,80.2709105,13.1052961
Basin Bridge,primary,80.2717171,13.1044139
Basin Bridge Road,primary,80.2747464,13.1041824
Whites Road,secondary,80.2651238,13.057802
,tertiary,80.2429482,12.9442444
Bharathiyar Nagar Main Road,tertiary,80.2387431,12.9348218
,tertiary,80.2379818,12.9296665
Raju Nagar 3rd Street,tertiary,80.2350131,12.9339322
,tertiary,80.2401267,12.9383635
Raju Nagar 6th Street,tertiary,80.2368766,12.935326
Pandian salai,tertiary,80.2481128,12.9496095
Pandian Salai,tertiary,80.2487833,12.9495382
Jani Jhan Khan Road,tertiary,80.2709855,13.0590396
Kalki Krishnamurty Road,secondary,80.2526657,12.9827397
Indira Nagar 1st Avenue,tertiary,80.2514273,12.9986722
Suryanarayana Street,primary,80.2911391,13.1062163
Mugalivakkam Road,tertiary,80.1678538,13.0253759
South Avenue,secondary,80.2576927,12.984174
,primary,80.2903918,13.1027981
Royapettah High Road,secondary,80.2642145,13.0539183
RK Mutt Road,secondary,80.2664657,13.0292148
Luz Church Road,secondary,80.2643051,13.0376204
Thambu Chetty Street,tertiary,80.2906337,13.1026852
Ramamoorthy Avenue,tertiary,80.1570237,13.0116803
T. Ponnambalam Salai,tertiary,80.147563,13.0104078
,tertiary,80.1311762,13.0162901
Maddox Street,tertiary,80.2656912,13.085367
General Collins Road,tertiary,80.2633917,13.0884061
Elephant Gate Bridge Road,secondary,80.2705742,13.0924182
Elephant Gate Bridge Road,secondary,80.2718427,13.0929094
Elephant Gate Bridge Road,secondary,80.2730507,13.0938441
Elephant Gate Bridge Road,secondary,80.2694012,13.0907884
Elephant Gate Bridge,secondary,80.2717752,13.0930077
Elephant Gate Bridge,secondary,80.2731196,13.0937439
Basin Bridge Road,primary,80.268407,13.0982139
,primary,80.2704914,13.1029471
Narasinga Perumal Koil Street,tertiary,80.2621464,13.0923292
,tertiary,80.262439,13.093478
Perambur Tank Bund Road,tertiary,80.2472506,13.0991044
Millers Road,primary,80.2503802,13.0857918
,tertiary,80.2258942,13.0999656
Vellala Street,tertiary,80.2214376,13.0960629
Portious Road,secondary,80.2313622,13.1027677
Thirumangalam Road,tertiary,80.2016611,13.0980048
Jones Subway,tertiary,80.2240989,13.0252732
Jones Subway,tertiary,80.224611,13.0252998
,tertiary,80.1933075,13.0144133
Morasali Maran Flyover,primary,80.2434907,13.1094768
Perambur High Road,primary,80.2478802,13.1068561
Perambur High Road,primary,80.2441293,13.1085382
,secondary,80.2422805,13.1096122
Perambur High Road,primary,80.2452302,13.1072599
Kalki Krishnamurty Road,secondary,80.2546692,12.9827366
NSK Salai,primary,80.2134278,13.0501817
Jawaharlal Nehru Road (100 Feet Road),primary,80.2124429,13.0443017
EVR Periyar Salai,primary,80.1965987,13.0754202
Ayanavaram Road,tertiary,80.2322339,13.0928091
Inner Ring Road (Southern Sector),primary,80.1959977,12.9838926
Kalki Krishnamurty Road,secondary,80.2548769,12.9835678
Muthuswamy Road,primary,80.2817846,13.082277
Kamaraj Salai,tertiary,80.1969997,13.0532477
,primary,80.2912907,13.10633
EVR Periyar Salai Flyover Ramp,primary_link,80.1998685,13.0763761
,primary_link,80.2005809,13.076324
,primary_link,80.1966109,13.0755168
EVR Periyar Salai Flyover Ramp,primary_link,80.1994009,13.0753313
EVR Periyar Salai Flyover,primary,80.2007413,13.0763914
EVR Periyar Salai Flyover Ramp,primary_link,80.2001241,13.0755433
EVR Periyar Salai Flyover Ramp,primary_link,80.1992279,13.0751598
EVR Periyar Salai Flyover Ramp,primary_link,80.1999275,13.0754215
Jawaharlal Nehru Road (100 Feet Road),primary,80.2050526,13.0699705
EVR Periyar Salai Flyover Ramp,primary_link,80.1995198,13.0768406
Jawaharlal Nehru Road (100 Feet Road),primary,80.2048975,13.0697317
EVR Periyar Salai Flyover,primary,80.1974974,13.075757
EVR Periyar Salai Flyover Ramp,primary_link,80.1985233,13.0767048
Jawaharlal Nehru Road (100 Feet Road),tertiary,80.21188,13.0499473
Bazullah Road,tertiary,80.2316325,13.0476018
Bazulla Flyover,tertiary,80.2305606,13.0477229
,tertiary,80.2305447,12.9233106
Easwaran St,tertiary,80.2282432,12.9227223
,tertiary,80.2088169,12.9458064
Velachery Main Road Flyover,primary,80.2109681,12.950782
Velachery Main Road,primary,80.2087023,12.9454726
Pallavaram - Thoraipakkam Road,primary,80.1954707,12.9484838
,tertiary,80.2111883,12.9511973
Velachery Main Road Flyover,primary,80.209047,12.9462538
Velachery Main Road,primary,80.2130794,12.9565214
Pallavaram - Thoraipakkam Road,primary,80.2101991,12.9485344
Pallavan Salai,secondary,80.2765139,13.0735535
Pallavan Salai,secondary,80.27636,13.0739188
Dhroupathy Amman Koil Street,tertiary,80.2230567,12.9870692
,primary_link,80.1990697,13.0754064
,primary_link,80.1991033,13.0770728
,primary_link,80.2013033,13.0762401
Defence Colony 1st Avenue,tertiary,80.1999647,13.0266493
Paul Wells Road,primary_link,80.1986539,13.0086305
Paul Wells Road,primary,80.1963563,13.0086596
,primary_link,80.2026131,13.0085874
Thillaiganga Nagar Subway,primary,80.1937283,12.9916967
Inner Ring Road (Southern Sector),primary,80.1950354,12.9909341
Inner Ring Road (Southern Sector),primary,80.193304,12.9947102
Pallavaram - Thoraipakkam Road,primary,80.2108324,12.948402
Pallavaram - Thoraipakkam Road,primary,80.2110401,12.9483989
Pallavaram - Thoraipakkam Road,primary,80.2258337,12.9496899
Pallavaram - Thoraipakkam Road,primary,80.221127,12.9493893
Pallavaram - Thoraipakkam Road,primary,80.2165882,12.9489262
Pallavaram - Thoraipakkam Road,primary,80.2234675,12.9494457
Pallavaram - Thoraipakkam Road,primary,80.2145269,12.9486237
Pallavaram - Thoraipakkam Road,primary,80.221239,12.9493002
Pallavaram - Thoraipakkam Road,primary,80.2201639,12.949178
Pallavaram - Thoraipakkam Road,primary,80.2115609,12.9485298
Pallavaram - Thoraipakkam Road,primary,80.2260146,12.9496997
Pallavaram - Thoraipakkam Road,primary,80.2145137,12.9487126
Pallavaram - Thoraipakkam Road,primary,80.2146771,12.948642
Pallavaram - Thoraipakkam Road,primary,80.2212378,12.9494032
Pallavaram - Thoraipakkam Road,primary,80.2108321,12.94851
Pallavaram - Thoraipakkam Road,primary,80.2260318,12.9495728
Pasumpon Muthuramalingar Thevar Salai (Chamiers Road),secondary,80.2456563,13.0296374
Defence Quarters,primary_link,80.2402861,13.030923
Kotturpuram Bridge,secondary,80.2440367,13.0267554
Govindaswamy Karuppiah Moopanar Flyover,secondary,80.2455746,13.0279719
Pasumpon Muthuramalingar Thevar Salai (Chamiers Road),secondary,80.2456523,13.0295607
Cenotaph Road,tertiary,80.2457825,13.0315482
Cenotaph Road,tertiary,80.2457429,13.0309967
Pasumpon Muthuramalingar Thevar Salai,secondary,80.2474307,13.0293648
,primary_link,80.1962569,13.0081968
Rajiv Gandhi IT Expressway,primary,80.2473998,13.0066491
East Coast Road,primary,80.242793,12.8054488
Sardar Patel Road,primary,80.2436375,13.0066045
Jawaharlal Nehru Road (100 Feet Road),primary,80.2021568,13.0723474
Jawaharlal Nehru Road (100 Feet Road),primary,80.2020302,13.0722465
Grand Southern Trunk Road,primary,80.1623191,12.9795371
Rajiv Gandhi Salai,primary,80.2407932,12.9493353
Rajiv Gandhi IT Expressway,primary,80.2525927,12.9817908
Kadappa Road,secondary,80.2008683,13.1313765
Rajiv Gandhi Salai,primary,80.2268488,12.8765425
Inner Ring Road (Southern Sector),primary,80.2157378,12.9685541
EVR Periyar Salai,primary,80.2217804,13.0743795
EVR Periyar Salai,primary,80.2015481,13.0763573
EVR Periyar Salai,primary,80.2224087,13.0742979
3rd Avenue,secondary,80.2124378,13.0419074
Vadapalani Flyover,primary,80.2121077,13.0476164
Gengu Reddy Road,secondary,80.2516867,13.0788878
Cenotaph Road,secondary,80.2460083,13.0350717
Gengu Reddy Subway,secondary,80.252011,13.0768725
,tertiary,80.239035,12.9293069
Anna Salai (Mount Road),primary,80.2290969,13.0245613
G N Chetty Road,secondary,80.2468333,13.0490968
Mambalam Canal Bridge,primary,80.2295596,13.0249301
St. Mary's Road,secondary,80.2609147,13.0292406
Anna Salai (Mount Road),primary,80.2353917,13.0280247
St Mary's Road,secondary,80.261093,13.0291744
Mambalam Canal Bridge,primary,80.2291219,13.024843
CIT Nagar 1st Main Road,secondary,80.2308504,13.029533
Gopathi Narayanaswami Road,secondary,80.2455078,13.0480579
Inner Ring Road (Southern Sector),primary,80.1959093,12.9866859
West Avenue Road,primary,80.2520856,12.987914
Sardar Patel Road,primary,80.2478282,13.0067698
Kalki Krishnamurty Road,secondary,80.2530456,12.9817508
Inner Ring Road (Southern Sector),primary,80.1962021,12.9839215
West Avenue Road,primary,80.251803,12.9879862
Sardar Patel Road,primary,80.2480458,13.0066601
West Avenue Road,primary,80.2516258,12.9878365
Sardar Patel Road,primary,80.2480767,13.0067649
Kalki Krishnamurty Road,secondary,80.2542393,12.9821498
Canal Bank Road,tertiary,80.2482003,13.015263
Sardar Patel Road,primary,80.2478217,13.0066594
Inner Ring Road (Southern Sector),primary,80.1963649,12.9829362
Rajiv Gandhi Salai,primary,80.2305511,12.923431
Rajiv Gandhi Salai,primary,80.2306836,12.9243653
Taramani Road,tertiary,80.2432971,12.9863017
Taramani Link Road,primary_link,80.2522717,12.980078
Bharathi Salai,tertiary,80.2803067,13.0577289
Dr Radhakrishnan Salai,primary,80.2743308,13.043362
Besant Road,secondary,80.2790917,13.0508163
Avvai Shanmugam Salai,tertiary,80.2772317,13.0466098
Ramkrishna Mutt Road,secondary,80.2680998,13.0345376
Anna Nagar Bridge,secondary,80.2178407,13.0809677
Swami Sivananda Salai,tertiary,80.2823679,13.0678155
Dr Radhakrishnan Salai,primary,80.276418,13.04338
Greenways Road,tertiary,80.2528732,13.0220215
Kutchery Road,secondary,80.2685833,13.0364529
Kamarajar Salai,tertiary,80.2581501,13.0244679
Anna Nagar Bridge,secondary,80.2177457,13.0804129
Dr Radhakrishnan Salai,primary,80.2764131,13.0432769
Bharathi Salai,tertiary,80.280506,13.0577573
Besant Road,secondary,80.2788096,13.050938
Avvai Shanmugam Salai,tertiary,80.2769611,13.0466401
Anna Arch Road,secondary,80.2178205,13.0804097
Anna Arch Road,secondary,80.2177686,13.0809707
Chamiers Road,tertiary,80.2528218,13.0226815
Kutchery Road,secondary,80.2688175,13.0363256
Swami Sivananda Salai,tertiary,80.2823706,13.067898
Swami Sivananda Salai,tertiary,80.2826091,13.0678131
Dr Radhakrishnan Salai,primary,80.276111,13.0433493
Kamarajar Salai,tertiary,80.2580177,13.0247401
RK Mutt Road,secondary,80.2678436,13.0359791
RK Mutt Road,secondary,80.2678167,13.0356621
Mint Street,tertiary,80.2798611,13.1056048
Parthasarathy Bridge,secondary,80.2802233,13.1071872
Manali Road,secondary,80.2735883,13.1251607
Manali Road,secondary,80.2733468,13.1252088
Kalaingar Karunanidhi Salai,primary,80.2375842,12.8994115
Jawaharlal Nehru Road (100 Feet Road),primary,80.2117589,13.0613249
Thirumangalam – Mogappair Road,primary,80.1922217,13.0875161
Kalaingar Karunanidhi Salai,primary,80.2389244,12.8991926
Kalaingar Karunanidhi Salai,primary,80.2281387,12.900997
Jawaharlal Nehru Road (100 Feet Road),primary,80.2115442,13.0613226
Kalaingar Karunanidhi Salai,primary,80.2391396,12.8994176
Jawaharlal Nehru Road (100 Feet Road),primary,80.2115342,13.0610582
Jawaharlal Nehru Road (100 Feet Road),primary,80.2117487,13.0610777
Kalaingar Karunanidhi Salai,primary,80.2376842,12.899656
South Avenue,tertiary,80.2501971,13.1307222
Lakshmanasamy Salai,tertiary,80.2047161,13.0381432
Anna Main Road,secondary,80.2040269,13.0359488
Anna Main Road,secondary,80.2040444,13.0360613
Moolakadai Flyover,primary,80.2400735,13.1300455
Vallavan Nagar Main Road,tertiary,80.1929708,13.0618953
Kaliamman Koil Street,secondary,80.1987081,13.0661452
Mount - Poonamallee - Avadi Road,primary,80.182096,13.0218266
Mount - Poonamallee - Avadi Road,primary,80.181896,13.0219466
South Avenue,tertiary,80.2501158,13.1308643
,tertiary,80.1932638,13.061938
Kamarajar Salai,tertiary,80.2421186,13.1302348
Mount - Poonamallee - Avadi Road,primary,80.1822503,13.0219337
Anna Main Road,secondary,80.2039338,13.0360782
Mount - Poonamallee - Avadi Road,primary,80.1820081,13.0220787
Erukkancheri High Road,primary,80.2486968,13.1232836
Anna Main Road,secondary,80.2039112,13.0359648
Kaliamman Koil Street,secondary,80.1958713,13.0606774
Jawaharlal Nehru Road (100 Feet Road),primary,80.2141626,13.1310075
Jawaharlal Nehru Road (100 Feet Road),primary,80.2146125,13.1312337
Kannagam Road,tertiary,80.2423543,12.9956567
VGN lakshmi Nagar Main Road,tertiary,80.1583168,13.0151807
,tertiary,80.1411267,13.0178339
Chinnapanicheri Road,tertiary,80.1199827,13.0100038
Anna Arch Flyover,secondary,80.2205793,13.0743799
Thillaiganga Nagar Subway,primary,80.1934673,12.9925198
Thillaiganga Nagar Subway,primary,80.1933568,12.9927709
,primary_link,80.1955984,12.9874759
Thillaiganga Nagar Subway,primary,80.1934576,12.9927999
Thillaiganga Nagar Subway,primary,80.1933764,12.992481
St Thomas Mount Subway,primary,80.2010933,12.9958301
Inner Ring Road (Southern Sector),primary,80.2173491,12.9680951
Karpagam Avenue,tertiary,80.2673562,13.0231445
Egmore High Road,secondary,80.2522342,13.0747212
TTK Road,secondary,80.2598776,13.0455999
,primary,80.2163422,12.964664
Pillayarkoil Street,tertiary,80.2025893,12.9286647
Balaji Nagar Main Road,tertiary,80.2041456,12.9780086
Balaji Nagar Main Road,tertiary,80.2041942,12.9788303
Inner Ring Road (Southern Sector),primary,80.1988083,12.9806949
MKB Nagar East Avenue,secondary,80.2661467,13.1276183
MKB Nagar West Avenue,secondary,80.2591799,13.1256925
MKB Nagar Bridge,secondary,80.2590925,13.1267697
Manali Road,secondary,80.2698133,13.127937
Manali Road,secondary,80.2699173,13.1278714
,tertiary,80.2388323,13.1152256
,tertiary,80.23389,13.1174489
Prakasam Street,tertiary,80.2340994,13.1183998
Muniappan Street,tertiary,80.247821,13.1135273
Vadivelu Mudali Street,tertiary,80.252654,13.1127513
,tertiary,80.2340994,13.1183998
Enmore High Road,secondary,80.2775972,13.1240384
Kathivakkam High Road,secondary,80.277623,13.1241111
East Coast Road,primary,80.2579716,12.9702562
Village High Road,tertiary,80.2324568,12.9006528
West Avenue Road,primary,80.252071,12.9880483
West Avenue Road,primary,80.2556474,12.9876088
Bazaar Road,tertiary,80.1962379,13.0056456
,tertiary,80.2326667,12.896922
Rajiv Gandhi Salai,primary,80.2466445,12.9635751
3rd Cross,tertiary,80.2465329,12.9751106
,tertiary,80.2465329,12.9751106
East Coast Road,primary,80.2590729,12.9781508
East Coast Road,primary,80.2591831,12.9771747
East Coast Road,primary,80.2583399,12.9740611
Kalaingar Karunanidhi Salai,primary,80.2311628,12.9007094
Kalaingar Karunanidhi Salai,primary,80.2324583,12.9008044
East Coast Road,primary,80.2554128,12.9581462
Pasumpon Muthuramalingar Thevar Salai,secondary,80.2457626,13.0295538
,tertiary,80.2582994,13.1444301
Anna Salai (Mount Road),primary,80.2210838,13.012363
Sardar Patel Road,primary,80.24615,13.0066442
Sardar Patel Road,primary,80.2215754,13.0120189
Kuppam Beach Road,tertiary,80.2624792,12.9688341
Indira Nagar 2nd Avenue,tertiary,80.2504547,12.9945477
East Coast Road,primary,80.2555474,12.9580904
Old Mahapalipuram Service Road,tertiary,80.2527888,12.9794514
OMR Service Road,tertiary,80.2501487,12.9733802
Dr MGR Main Road,secondary,80.2432743,12.9812969
Panchayat Main Road,tertiary,80.2393942,12.9548797
Taramani Link Road,primary,80.2429146,12.981299
Taramani Link Road,primary,80.2432785,12.9813924
Anna Nedunchalai,tertiary,80.245815,12.9673501
Thiruvottriyur High Road,secondary,80.2966923,13.1438697
Kodambakkam – Sriperumbudur Road,primary,80.1529389,13.0306463
Inner Ring Road (Southern Sector),primary,80.1933281,12.9970212
MKN Road,tertiary,80.1934698,12.9968667
,secondary_link,80.2575913,13.0063909
Constable Road,secondary,80.2301123,13.1028759
,tertiary,80.2308157,13.0993515
Peeliamman Koil Street,tertiary,80.2411166,12.9862239
,tertiary,80.2398133,12.9821099
Vyasarpadi Flyover,primary,80.2683823,13.1079367
Vyasarpadi Flyover,primary,80.2656721,13.1135919
,secondary,80.217809,13.0822416
13th Main Road,tertiary,80.2006447,13.0929167
4th Avenue (Santhi Colony Road),tertiary,80.1986356,13.0829694
5th Avenue,tertiary,80.21021,13.0855324
Uttamar Gandhi Salai (Nungambakkam High Road),primary,80.2478287,13.0597826
Uttamar Gandhi Salai (Nungambakkam High Road),primary,80.2507557,13.052391
Uttamar Gandhi Salai (Nungambakkam High Road),primary,80.2502938,13.0537665
Dr MGR Salai,primary,80.2410002,13.0524265
Kilpauk Garden Road,secondary,80.2413867,13.0828339
Kilpauk Garden Road,secondary,80.2373846,13.0835237
,secondary,80.2503861,13.0516646
Anna Salai (Mount Road),primary,80.2675625,13.0658332
Anna Salai (Mount Road),primary,80.2565204,13.0563615
,primary_link,80.2516922,12.9871984
Moolachatram Main Road,tertiary,80.2481938,13.1482016
North Avenue,tertiary,80.2488397,13.1362238
South Avenue,tertiary,80.2466784,13.1332671
Kattabomman Main Road,tertiary,80.2441751,13.1383367
EVR Periyar Salai,primary,80.2516945,13.078771
EVR Periyar Salai,primary,80.2407225,13.0772204
Harrington Road,tertiary,80.235309,13.0693304
Harrington Road,tertiary,80.2320937,13.0706111
Mayor Ramanathan Road (Spur Tank Road),secondary,80.2424798,13.069303
Mc Nichols Road,primary,80.2424,13.0692923
New Avadi Road,primary,80.2008647,13.1034779
,primary_link,80.2507557,13.052391
Anna Flyover,secondary,80.2489628,13.050743
Anna Flyover,primary,80.2506926,13.0521581
Gopathi Narayanaswami Road,secondary,80.2359395,13.0427568
Gopathi Narayanaswami Road,secondary,80.2468917,13.049011
Sir Thyagaraya Road,secondary,80.2466301,13.0391941
,secondary,80.2472066,13.0492645
Anna Salai,primary,80.2497085,13.0494117
Gopathi Narayanaswami Road,secondary,80.2453961,13.0478914
Gopathy Narayana Road,secondary,80.249906,13.0514714
,primary,80.2501004,13.050688
,primary,80.2499824,13.0507468
Gopathy Narayana Road,secondary,80.247671,13.0495356
,primary,80.2499238,13.0507777
Gopathi Narayanaswami Road,secondary,80.238357,13.0439749
Anna Salai (Mount Road),primary,80.23986,13.0310314
Sir Thyagaraya Road,secondary,80.246537,13.0392236
Thirumalai Road,secondary,80.2410002,13.0524265
,secondary_link,80.23999,13.0450661
,secondary_link,80.2401427,13.0453311
,secondary_link,80.240477,13.045115
,secondary_link,80.2403563,13.0448612
Janaki Avenue,tertiary,80.2726363,13.0189264
Ezhumalai Road,tertiary,80.1826145,12.9396044
Kovilambakkam to Pallavaram Municipal Limit Road,tertiary,80.1590051,12.9460584
North Parade Road,tertiary,80.1962559,13.0057463
road to Manapakkam,tertiary,80.1816077,13.0152314
Mount - Poonamallee - Avadi Road,primary,80.1959435,13.0106444
Mount - Poonamallee - Avadi Road,primary,80.1958341,13.0106377
Pallavaram Road,tertiary,80.1486515,12.9953635
Anna Salai (Mount Road),primary,80.2163283,13.0104614
Anna Salai (Mount Road),primary,80.2183624,13.0112821
Pulla Avenue,tertiary,80.2251476,13.0798081
Mayor Ramanathan Road (Spur Tank Road),secondary,80.2442737,13.0696407
,primary_link,80.2506815,13.0514975
Viduthal Nagar 1st main road,tertiary,80.1989335,12.9485037
,tertiary,80.2250406,13.0774484
,secondary,80.2569604,13.0348777
,secondary,80.2567953,13.038053
Mowbrays Road,secondary,80.2573172,13.0387877
Vadakkupattu Road,tertiary,80.1823973,12.9354436
Medavakkam Main Road,primary,80.1832739,12.9457697
Mount - Medavakkam Road,primary,80.1826477,12.9253979
Mount - Medavakkam Road,primary,80.1898774,12.9690267
Velachery Mudhanmai Salai,primary,80.2090282,12.9457651
Velachery Mudhanmai Salai,primary,80.2077917,12.9432528
Velachery Mudhanmai Salai,primary,80.1993251,12.9281653
Velachery Mudhanmai Salai,primary,80.1968354,12.9209796
Noble 1st Street,tertiary,80.1894543,12.9959327
,tertiary,80.1536572,12.9707003
Rajiv Gandhi Salai,primary,80.2428276,12.9549082
,tertiary,80.240397,12.9584654
Rajiv Gandhi Salai,primary,80.2270086,12.8765254
Rajiv Gandhi Salai,primary,80.2307923,12.9243266
Rajiv Gandhi Salai,primary,80.2376395,12.9438098
Rajiv Gandhi Salai,primary,80.243553,12.9562914
Pallavaram - Thoraipakkam Road,primary,80.2347944,12.9499502
,tertiary,80.2382849,12.9495948
,primary_link,80.240571,12.9486826
EVR Periyar Salai,primary,80.2380064,13.0766849
EVR Periyar Salai,primary,80.2338977,13.0758601
New Avadi Road,secondary_link,80.2338977,13.0758601
Taylors Road,tertiary,80.2380649,13.0770071
Venkatanarayana Road,secondary,80.2375933,13.0343838
Kilpauk Garden Road,secondary,80.2306143,13.0831386
New Avadi Road,secondary,80.233896,13.083553
,secondary,80.2255,13.0833909
1st Avenue,secondary,80.2240492,13.0852392
Nerkundrampadai Road (East),tertiary,80.2137005,13.05444
EVR Periyar Salai,primary,80.2380274,13.0765787
Sardar Patel Road,primary,80.2368543,13.0074713
Gengu Reddy Road,secondary,80.2522302,13.0749637
Mahalingapuram Main Road,secondary,80.234784,13.0561275
Tank Bund Road,secondary,80.23743,13.0610778
Tank Bund Road,secondary,80.23631,13.0623216
Tank Bund Road,secondary,80.2374505,13.0612287
Tank Bund Road,secondary,80.2425522,13.0569952
Valluvar Kottam High Road,secondary,80.2417737,13.0526376
Valluvar Kottam High Road,secondary,80.2427961,13.0572301
Musiri Subramanium Road,secondary,80.2643714,13.0375787
Village High Road,tertiary,80.2324583,12.9008044
Nehru Main Road,tertiary,80.2286283,12.9088649
,tertiary,80.2207622,12.914336
,tertiary,80.2393722,12.9454213
Thanikachalam Road,secondary,80.2397784,13.0390937
Maloney Road,tertiary,80.2395203,13.0353119
Raghaviah Road,tertiary,80.2358495,13.0427516
Inner Ring Road (Southern Sector),primary,80.1931563,12.9969354
Inner Ring Road (Southern Sector),primary,80.192244,12.9983834
Inner Ring Road (Southern Sector),primary,80.1934097,12.9967364
Semmozhi Salai,primary,80.1947926,12.914408
Medavakkam - Mambakkam - Sembakkam Road,primary,80.192268,12.9156416
Pillaiyar Kovil Street,tertiary,80.1925651,12.9173341
Pallavaram - Thoraipakkam Road,primary,80.1853366,12.9491642
,tertiary,80.1851882,12.989081
,tertiary,80.1849711,12.9907755
,tertiary,80.185148,12.9895981
V.O.C. Street,tertiary,80.2321703,12.93181
Velachery Bypass Road,primary,80.2181963,12.9874685
Grand Southern Trunk Road,primary,80.1893678,12.9960315
Grand Southern Trunk Road,primary,80.1920954,12.9982712
MKN Road,tertiary,80.1931438,12.9968177
Anna Salai (Mount Road),primary,80.2093905,13.0080754
MKN Road,tertiary,80.2096505,13.0065462
MKN Road,tertiary,80.2094986,13.0060709
Maduvankarai Bridge,tertiary,80.2094516,13.0060847
road to Manapakkam,tertiary,80.1827408,13.0152318
road to Manapakkam,tertiary,80.1817061,13.0152286
Velachery Main Road,secondary,80.2195415,12.9916407
Velachery Main Road,secondary,80.2200604,12.9908509
Link Road,tertiary,80.2094718,13.0035057
Velachery Main Road,secondary,80.2171837,12.9948066
Velachery Main Road,secondary,80.2195142,12.9915156
Chakrapani Street,tertiary,80.2119433,13.0037212
Five Furlong Road,secondary,80.2162638,12.997438
Link Road,tertiary,80.2115162,13.0037109
Velachery Main Road,secondary,80.216481,12.9971957
Velachery Main Road,secondary,80.2177732,12.9939784
Bazaar Main Road,secondary,80.2113062,12.9645643
,tertiary,80.2541647,13.1231698
,tertiary,80.2385158,13.1202424
,tertiary,80.2393295,13.1172399
,tertiary,80.2338622,13.1144495
sabapathy Street,tertiary,80.2381333,13.1124906
road to Manapakkam,tertiary,80.1870733,13.0179409
Chakrapani Street,secondary,80.2119433,13.0037212
Five Furlong Road,secondary,80.2120106,13.0036069
Annai Santhya Nagar Main Road,tertiary,80.2306662,12.9671572
Nagamani Adigalar Street,tertiary,80.2306662,12.9671572
Gandhi Road,tertiary,80.2308471,12.9855409
Vandiakran Street,secondary,80.2240458,13.0288916
SIDCO Industrial Road,tertiary,80.1993439,13.1092016
Baali Amman Koil Street,tertiary,80.2075743,13.1076658
East Mada Street,tertiary,80.2099335,13.1055373
North Mada Street,tertiary,80.2075743,13.1076658
South Mada Street,tertiary,80.207954,13.1056118
,tertiary,80.2058291,13.1040196
Redhills Road,tertiary,80.2073152,13.1055428
,tertiary,80.2206577,13.1039903
Bharathi Salai,tertiary,80.2654066,13.0583
,tertiary,80.2606864,13.0866541
Velachery MRTS Bridge,primary,80.2187432,12.9705968
South Canal Bank Road,tertiary,80.2669083,13.0256672
Kutchery Road,secondary,80.268535,13.0364809
Luz Church Road,secondary,80.2663052,13.0371226
Sullivan Garden Road,secondary,80.2648372,13.041604
,secondary,80.2647314,13.0416723
Thandavarayan Street,tertiary,80.2675193,13.0189362
TNHB Main Rd,tertiary,80.2315556,12.8792368
TNHB Main Rd,tertiary,80.2268608,12.8803752
Doctor Ranga Road,secondary,80.256884,13.0333235
Doctor Shivaji Ganesan Road,tertiary,80.2439898,13.0400294
Luz Church Road,secondary,80.2643051,13.0376204
Sir Thyagaraya Road,secondary,80.2340001,13.0412393
Sullivan Garden Road,secondary,80.2674565,13.0410213
Thiruvika Salai,secondary,80.2681873,13.0410763
Doctor Shivaji Ganesan Road,tertiary,80.2422221,13.0349146
Doraiswamy Subway,secondary,80.2299253,13.0409917
Bazulla Flyover,tertiary,80.231418,13.0476307
Bazulla Flyover,tertiary,80.2300512,13.048411
Venkatanarayana Road,secondary,80.2346666,13.0391393
North Usman Road,secondary,80.2347097,13.0537064
South Usman Road,secondary,80.2303139,13.0347438
North Usman Road,tertiary,80.2325552,13.0447298
Doraiswamy Road,secondary,80.2302385,13.0409311
Doctor M.G.R. Salai,primary,80.2446102,13.0526971
Doraiswamy Road,secondary,80.2319334,13.0405292
Kodambakkam Railway Flyover,primary,80.23404,13.0538558
Mahalingapuram Flyover,secondary,80.234457,13.0532748
North Usman Road,tertiary,80.2322548,13.0422311
Panagal Park,secondary,80.2334299,13.0406083
Panagal Park,secondary,80.2325732,13.0407959
Panagal Park,secondary,80.2319931,13.0410408
South Usman Road,tertiary,80.2315278,13.0391571
,tertiary,80.2299632,13.0409307
,secondary,80.2347628,13.0557772
Doctor M.G.R. Salai,primary,80.2501813,13.0537205
Doctor M.G.R. Salai,primary,80.2501505,13.0537989
,primary_link,80.2420532,13.052605
,primary,80.2186821,12.969783
Velachery MRTS Bridge,primary,80.2188898,12.9705875
Velachery Main Road,primary,80.2192164,12.971874
Inner Ring Road (Southern Sector),primary,80.2101176,12.9737176
Adithanar Road,secondary,80.2625902,13.0727188
Gandhi Irwin Bridge,secondary,80.2653379,13.0788431
Pantheon Road,secondary,80.2609451,13.0731208
,secondary_link,80.2585427,13.0709758
Gandhi Irwin Bridge,secondary,80.2653874,13.0791483
Langs Garden Road,tertiary,80.2652981,13.0752562
Langs Garden Road,secondary,80.2651669,13.0807843
Langs Garden Park,secondary,80.2652929,13.0791086
,primary,80.2278402,13.0103252
,primary_link,80.2283395,13.0091482
Grand Southern Trunk Road,primary,80.185461,12.9939188
Nanganallur Road,tertiary,80.1849785,12.9909673
Dr. Guruswamy bridge,primary,80.2405955,13.0739025
Dr. Guruswamy bridge,primary,80.2407247,13.0732636
Gandhi Mandapam Road,secondary,80.2402396,13.0067757
Mayor Ramanathan Road (Spur Tank Road),secondary,80.2445468,13.0698034
Mc Nichols Road,primary,80.2407798,13.0732799
Venkatakrishna Iyer Road,secondary,80.2659605,13.0262774
,primary,80.2406702,13.076866
,primary_link,80.2410906,13.077325
Elephant Gate Bridge Road,secondary,80.2695087,13.0906139
Raja Muthiah Road,secondary,80.2695843,13.0907055
Raja Muthiah Road,secondary,80.2704317,13.0843346
Raja Muthiah Road,secondary,80.270656,13.0833269
Vepery High Road,secondary,80.2625542,13.0856393
Wallajah Road,secondary,80.2782924,13.0647735
Wallajah Road,secondary,80.2783915,13.0648674
Madha Church Road,tertiary,80.2763859,13.0286414
,secondary,80.2663845,13.0292224
Royapettah High Road,secondary,80.2649266,13.0489866
Thiru Vi Ka Flyover,secondary,80.2674604,13.0435345
Thiru Vi Ka Flyover,secondary,80.2667487,13.0449334
Thiru Vi Ka Sundaram High Road,tertiary,80.2665151,13.0463106
Thiruvika Salai,secondary,80.2681192,13.0425503
Westcott Road,secondary,80.2641252,13.0539228
Mount - Poonamallee - Avadi Road,primary,80.1870733,13.0179409
Canal Bank Road,tertiary,80.237014,13.031356
Mopparappan Street,tertiary,80.2371071,13.0315793
,tertiary,80.237221,13.0312142
South Usman Road,tertiary,80.230745,13.0365063
Bazaar Road Subway,tertiary,80.2233565,13.0214056
Bazaar Road Subway,tertiary,80.2227731,13.021074
Madley subway,tertiary,80.2269748,13.035383
Madley subway,tertiary,80.2272529,13.0353218
,tertiary,80.2285898,13.0413957
Mahalingapuram Flyover,secondary,80.2339931,13.0518366
,tertiary,80.2272655,13.0416237
,secondary,80.2240573,13.02859
Ragavan Colony East Street,tertiary,80.2166978,13.0284006
Anna Salai (Mount Road),primary,80.2250894,13.0155164
Anna Salai (Mount Road),primary,80.2116525,13.0090089
General Hospital Road,primary,80.2734253,13.0814141
General Hospital Road,primary,80.2760534,13.081814
Jawaharlal Nehru Road (100 Feet Road),primary,80.1990474,13.0759334
Jawaharlal Nehru Road (100 Feet Road),primary,80.1999988,13.074276
Kaliamman Koil Street,secondary,80.2020481,13.0719253
Kaliamman Koil Street,secondary,80.2006685,13.0697591
Kaliamman Koil Street,secondary,80.2007812,13.0697047
Kathipara Interchange Flyover,primary,80.2032283,13.0065816
EVR Periyar Salai Flyover,primary,80.2013825,13.0762972
Rajiv Gandhi IT Expressway,primary,80.2479516,13.0011876
Old Mahapalipuram Road,primary,80.2514435,12.9878116
Sardar Patel Road,primary,80.2472648,13.0067702
Taluk Office Road,primary,80.2260049,13.0150158
West Avenue Road,primary,80.2514186,12.9879188
Kathipara Interchange Flyover,primary,80.2031043,13.0074079
EVR Periyar Salai Flyover,primary,80.1998685,13.0763761
Inner Ring Road,primary,80.2120523,13.0340394
22nd Street,primary,80.2594369,12.9839318
Alandur Road,secondary,80.2110096,13.009488
Anna Flyover,primary,80.2502562,13.0515514
Anna Flyover,primary,80.2503067,13.0515471
Model School Road,tertiary,80.2519844,13.059262
Racecourse Road,secondary,80.2127845,13.0068768
Racecourse Road,secondary,80.2131229,13.0079893
Railway Border Road,tertiary,80.2294744,13.0452084
Railway Border Road,tertiary,80.230121,13.0508511
Bazulla Flyover,tertiary,80.230113,13.0507014
Bazulla Flyover,tertiary,80.2298634,13.0471879
,primary_link,80.2149936,13.0104217
,tertiary,80.2126551,13.0144541
Stanley Viaduct,secondary,80.2761802,13.0772072
Anna Main Road,tertiary,80.2233325,13.0496347
11th Avenue,secondary,80.2117894,13.0320337
Govindan Road,secondary,80.2205551,13.032232
North Wall Road,secondary,80.2798157,13.1056179
Old Jail Road,primary_link,80.2799838,13.105792
Vijayaraghavelu Road,secondary,80.2798166,13.1058397
Mint Junction,secondary,80.2798378,13.1056093
Ranganathan Avenue,tertiary,80.2466037,13.0834686
Anna Salai,primary,80.2768684,13.0741199
Anna Salai,primary,80.2765139,13.0735535
Angalamman Kovli Street,tertiary,80.2634418,13.0921745
Periyar Pathi Road,tertiary,80.2225645,13.0597902
Canal Bank Road,tertiary,80.2483802,13.0067672
Pillaiyar Koil Street,tertiary,80.1912111,13.0380115
Wall Tax Road,primary,80.2744605,13.1019385
Wall Tax Road,primary,80.2761962,13.0818797
Esplanade,secondary,80.2845759,13.0856838
Evening Bazaar Road,secondary,80.2790026,13.0833505
General Hospital Road,primary,80.2778503,13.0820917
Memorial Hall Road,secondary,80.2781193,13.083387
Muthuswamy Bridge,primary,80.2808888,13.0803358
Muthuswamy Road,primary,80.2820156,13.0791132
Muthuswamy Road,primary,80.2816954,13.082379
North Fort Road,primary,80.2878603,13.0851394
Rajaji Salai,primary,80.2915343,13.0921803
Rajaji Salai,primary,80.2853397,13.0736861
Rajaji Salai,primary,80.2860363,13.0736986
,primary,80.2890909,13.0855776
Basin Bridge Road,secondary,80.2772529,13.1049883
D'Mellows Salai,secondary,80.262432,13.0971913
Bharathi Road,tertiary,80.2484692,13.1133059
,tertiary,80.2067192,13.1113749
,tertiary,80.2065629,13.109991
,tertiary,80.2252238,13.119361
,tertiary,80.2194526,13.1140574
New Avadi Road,primary,80.213841,13.0985233
,tertiary,80.2065327,13.1100894
,tertiary,80.206828,13.1132779
2nd Main Road,tertiary,80.212988,13.1101565
Kolathur Main Road,tertiary,80.2065405,13.1187828
Pilkington Road,tertiary,80.239845,13.0997048
Tank Bund Road,primary,80.2441092,13.1097153
Morasali Maran Flyover,primary,80.2442477,13.1087319
Perambur High Road,tertiary,80.2433631,13.107014
Sathyamoorty Nagar Main Road,secondary,80.2657274,13.115294
,tertiary,80.2541647,13.1231698
,tertiary,80.2554256,13.1229956
4th Cross Street,tertiary,80.2423543,12.9956567
Meenambal Road,secondary,80.2588636,13.1313808
28th Street,tertiary,80.2151243,13.040447
Defence Colony 1st Avenue,tertiary,80.1986795,13.0193122
14th Avenue,tertiary,80.2091371,13.0301748
Anna Nagar 6th Avenue,tertiary,80.2006447,13.0929167
,primary_link,80.1976067,13.0758868
South Mint Street,secondary,80.277998,13.0821094
Kathipara Interchange Flyover,primary,80.2036735,13.0081079
Konnur High Road,secondary,80.2075541,13.1032282
,secondary,80.2503802,13.0857918
Purasawalkam High Road,secondary,80.2501468,13.0858562
EVR Periyar Salai,primary,80.254279,13.0788244
Gangadeeshwar Koil Street,secondary,80.25447,13.0823253
EVR Periyar Salai,primary,80.2569471,13.0792164
Millers Road,primary,80.2496246,13.0816366
Krishnasamy Street,tertiary,80.1860317,12.9869493
Grand Southern Trunk Road,primary,80.2009986,13.0037285
Sardar Patel Road,primary,80.2283395,13.0091482
General Hospital Road,primary,80.2782268,13.0820195
Harrington Road,tertiary,80.2332132,13.0700742
Harrington Road,tertiary,80.234031,13.0696808
Harrington Road,tertiary,80.2340469,13.0697066
Harrington Road,tertiary,80.2353066,13.0692734
Peters Road,secondary,80.2689097,13.0534451
Peters Road,secondary,80.2556651,13.0546718
Peters Road,secondary,80.2665112,13.0537036
Peters Road,secondary,80.2665458,13.053584
Peters Road,secondary,80.2603221,13.054263
Peters Road,secondary,80.2546112,13.0549227
Patullos Road,tertiary,80.2627486,13.0577758
Whites Road,secondary,80.2616644,13.0576252
Binny Road,secondary,80.2629025,13.0620586
Binny Road,secondary,80.2608989,13.0636569
Commander-In-Chief Bridge,secondary,80.2602356,13.0638541
Rukmani Lakshmipathi Road,secondary_link,80.2601063,13.0640062
,secondary_link,80.2607179,13.0661452
,secondary,80.2591677,13.064341
Wallajah Road,primary_link,80.272091,13.068774
,primary_link,80.2719978,13.0681631
,secondary,80.271881,13.0684298
Peters Road,secondary,80.2615843,13.0540828
Peters Road,secondary,80.2556733,13.054592
Ashoka Avenue,tertiary,80.2231876,13.0488103
General Hospital Road,primary,80.2816954,13.082379
General Hospital Road,primary,80.2811546,13.082256
Muthuswamy Road,primary,80.2811903,13.0817612
Muthuswamy Bridge,primary,80.2817836,13.0792026
Broadie's Castle Road,primary,80.2630135,13.0202472
Pantheon Road,secondary,80.2611278,13.0732364
Taravath Madhavan Nair Bridge Road,secondary,80.2569785,13.0769857
,secondary_link,80.2569891,13.0791344
Taravath Madhavan Nair Bridge Road,secondary,80.2567034,13.0775263
Taravath Madhavan Nair Bridge Road,secondary,80.2566019,13.0791851
Gandhi Irwin Road,secondary,80.2594329,13.0758861
Halls Road,secondary,80.2575413,13.0747568
,secondary,80.2573049,13.0747456
Halls Road,secondary,80.2575276,13.0745657
Deputy Mayor Kabalamurthy Road,secondary,80.2739583,13.0722422
Swami Sivananda Salai,tertiary,80.274538,13.0716919
,primary_link,80.2891089,13.0848685
,primary_link,80.2893294,13.084971
Inner Ring Road (Southern Sector),primary,80.2041456,12.9780086
Chennai - Ennore Expressway Road,primary,80.3165235,13.1837929
Velachery Main Road,primary,80.2160258,12.9634844
,tertiary,80.2101389,12.948402
,tertiary,80.2098206,12.9485814
West Jones Road,tertiary,80.2197887,13.0248793
Mount - Poonamallee - Avadi Road,primary,80.1537271,13.0358341
Nagerkoyil Sudalaimuthu Krishnan Salai,primary,80.2202026,13.0524216
Sivan Koil Street,tertiary,80.2202026,13.0524216
Anna Salai (Mount Road),primary,80.2717904,13.0685129
Nelson Manickam Road,secondary,80.2219006,13.0720851
Nelson Manickam Road,secondary,80.2344674,13.0653584
Nelson Manickam Road,secondary,80.2210341,13.0743569
Nungambakkam Subway,secondary,80.2325851,13.0661876
Nungambakkam Subway,secondary,80.2332847,13.0658819
Nungambakkam Subway,secondary,80.2325617,13.0661194
Sterling Avenue,secondary,80.2363113,13.064057
Sterling Road,secondary,80.2361772,13.0642704
Valluvar Kottam High Road,primary,80.243467,13.0663355
,secondary,80.2353731,13.0635832
Sterling Road,secondary,80.2355356,13.0639534
Pallavaram - Cowl Bazar Road,tertiary,80.1450355,12.9802962
Cart Track Road,tertiary,80.216596,12.9961312
,tertiary,80.137061,13.0368125
,tertiary,80.1383773,13.0368812
,tertiary,80.2144204,13.066982
Thirthangal Nadar College Road,tertiary,80.2566603,13.1434516
sabapathy Street,tertiary,80.2379096,13.1125912
Pillayarkoil Street,tertiary,80.2029172,12.9286556
Sardar Patel Road,primary,80.2402396,13.0067757
Taramani Link Road,primary,80.2336401,12.9815604
Velachery Road,secondary,80.2239106,13.0125773
Sardar Patel Road,primary,80.2426807,13.006597
,tertiary,80.2362223,13.1161881
BB Road,tertiary,80.2527371,13.1144144
Chandra Yogi Samadhi Road,tertiary,80.2456506,13.1049758
Constable Road,tertiary,80.2313622,13.1027677
Morasali Maran Flyover,primary,80.2432881,13.1067436
Morasali Maran Flyover,primary,80.2420867,13.1069965
Morasali Maran Flyover Ramp,primary_link,80.2420867,13.1069965
Stephenson Road,secondary,80.2503512,13.1084501
Pilkington Road,tertiary,80.2421694,13.1070821
Thambiah Road,tertiary,80.224747,13.0414755
College Road,primary,80.244827,13.0662413
Pantheon Road,secondary,80.2554136,13.0679776
,primary_link,80.2434815,13.0631801
Anna Salai (Mount Road),primary,80.2289552,13.0247164
Mount - Medavakkam Road,primary,80.2012362,12.9935659
Elephant Gate Bridge Road,secondary,80.2744626,13.0925415
Elephant Gate Bridge Road,secondary,80.2743186,13.0928113
Elephant Gate Bridge Road,secondary,80.2738674,13.0932389
"kamarajar Salai, AVM Avenue 1st Main Road",tertiary,80.1894633,13.0498013
"kamarajar Salai, AVM Avenue 1st Main Road",tertiary,80.1890863,13.0498018
Kamaraj Salai,tertiary,80.1963755,13.051978
Kamaraj Salai,tertiary,80.1969842,13.0520159
Kamarajar Salai,primary,80.2796646,13.0434282
Kamarajar Salai,primary,80.2797579,13.0432256
Siva Shankaran Street,tertiary,80.1519941,12.9668914
Pallavaram Flyover,tertiary,80.1536148,12.9720329
,tertiary,80.1519941,12.9668914
Acharya Tulsi Road,tertiary,80.1475758,12.9696007
,tertiary,80.1494258,12.9708431
,tertiary,80.1494501,12.9708611
Indira Gandhi Road,primary,80.1490703,12.9675273
Acharya Tulsi Road,tertiary,80.1478763,12.9698088
,tertiary,80.2147075,13.1242785
,primary,80.2550193,13.1199382
Sivan Koil Street,tertiary,80.2225645,13.0597902
Gandhi Road,tertiary,80.2245841,12.9865442
,tertiary,80.2523286,12.8898527
,tertiary,80.2521465,12.8899301
Cochrane Basin Road,secondary,80.2722963,13.106873
,tertiary,80.1293258,13.0010688
,tertiary,80.2423488,12.9540027
Ottiambakkam Road,tertiary,80.1912974,12.865918
Wing Haven Road,tertiary,80.199668,12.8633413
Wing Haven Road,tertiary,80.1996851,12.8636465
Wing Haven Road,tertiary,80.1997267,12.8641161
TNHB Main Road,tertiary,80.2365776,12.8995947
TNHB Main Road,tertiary,80.2363981,12.8991345
1st Avenue,tertiary,80.2236383,13.0857011
1st Avenue,tertiary,80.2236478,13.0858213
,secondary_link,80.2301847,13.083115
,secondary,80.2436461,13.0834269
Harleys Road,secondary,80.2436461,13.0834269
Ormes Road,tertiary,80.2447379,13.0819339
Purasaiwalkam Flyover,secondary,80.2566142,13.0863898
Purasawalkam High Road,secondary,80.2544315,13.0856488
Purasawalkam High Road,secondary,80.2564451,13.0863014
Hunters Road,tertiary,80.2585742,13.0870784
,tertiary,80.2606864,13.0866541
Dr Alagappa Road,secondary,80.2548647,13.0814755
North Fort Road,primary,80.2894266,13.0857851
North Fort Road,primary,80.2898644,13.0873133
Mount - Medavakkam Road,primary,80.1972377,12.9859038
Jawaharlal Nehru Road (100 Feet Road),primary,80.2113352,13.0545307
Nerkundrampadai Road (East),tertiary,80.2115786,13.0545241
Jawaharlal Nehru Road (100 Feet Road),primary,80.2115948,13.054426
Bharani Street,tertiary,80.2309061,12.9716726
Taramani Link Road,primary,80.2401484,12.9812803
Taramani Link Road,primary,80.2358943,12.9812548
Taramani Road,primary,80.2207817,12.9755689
Taramani Link Road,primary,80.2252635,12.9783717
Taramani Link Road,primary,80.233695,12.9814181
Taramani Link Road,primary,80.2322191,12.9820681
Taramani Link Road,primary,80.2306639,12.9817389
,primary_link,80.2306639,12.9817389
Perungudi Station Road,tertiary,80.2268273,12.9711198
Annai Indhra Gandhi Road,tertiary,80.2194348,12.9694521
Bharani Street,tertiary,80.2329901,12.9751371
Perungudi Station Road,tertiary,80.230791,12.9754236
Perungudi Station Road,tertiary,80.2240072,12.9686348
Dr Ambedkar Road,secondary,80.2196641,13.0497936
Taramani Road,tertiary,80.2433041,12.9862333
Taramani Road,tertiary,80.2411166,12.9862239
,tertiary,80.2433041,12.9862333
New Colony Main Road,tertiary,80.2322191,12.9820681
Anna Arch Flyover,secondary,80.218734,13.0749447
Anna Arch Flyover,secondary,80.2210953,13.0727506
Taramani Link Road,tertiary,80.2434347,12.9777527
Taramani Link Road,tertiary,80.2331456,12.9766312
Taramani MRTS Station Road,tertiary,80.2433432,12.9786434
New Colony 3rd Main Road,tertiary,80.2326189,12.9830957
Pillaiyar Koil Street,tertiary,80.2384084,12.9841475
McNichols Road,primary,80.2423025,13.069279
Taramani Road,primary,80.2342088,12.9811862
Taramani Link Road,primary,80.2342088,12.9811862
JagannathaPuram 3rd Main Road,tertiary,80.220623,12.984393
Bharani Street,tertiary,80.2329726,12.9772602
New Colony 3rd Main Road,tertiary,80.2324572,12.9831041
New Colony 3rd Main Road,tertiary,80.231374,12.9834894
ELCOT Back Gate Road,tertiary,80.2206386,12.9143614
,tertiary,80.2285884,12.909688
,tertiary,80.2306224,12.924605
OMR Service Road,tertiary,80.2405521,12.948159
,tertiary,80.2294092,12.9140884
,primary_link,80.2283069,12.905508
Anna Salai (Mount Road),primary,80.2294211,13.025082
Anna Salai (Mount Road),primary,80.2330731,13.0264963
CIT Nagar 3rd Main Road,secondary,80.2330185,13.0266853
General Hospital Road,primary,80.275054,13.0817081
Pallavan Salai,secondary,80.275141,13.0814289
Manapakkam Main Road,secondary,80.168992,13.0130231
Bharani Street,tertiary,80.2331913,12.9793061
Taramani Link Road,primary,80.2220667,12.9765503
Bharani Street,tertiary,80.2330235,12.9765983
Mahalingapuram Flyover,secondary,80.2340557,13.0518649
Besant Nagar 1st Avenue Service Road,tertiary,80.2631665,13.0007593
Terminal Link Road,tertiary,80.1596564,12.9794468
,tertiary,80.2073189,13.0263432
,tertiary,80.2071826,13.0253624
,tertiary,80.2205987,12.9142128
Bazzar Street,tertiary,80.1914943,13.0398032
Jeevanantham Street,tertiary,80.1935263,13.0428158
Erikarai Salai,tertiary,80.1918591,13.0359024
,secondary,80.2502068,13.0516853
,secondary,80.2506815,13.0514975
,tertiary,80.2405034,12.96016
Gopathi Narayanaswami Flyover,secondary,80.2422426,13.0461415
Gopathi Narayanaswami Flyover,secondary,80.2407009,13.04537
Gopathi Narayanaswami Flyover,secondary,80.2384117,13.0440048
Gopathi Narayanaswami Flyover,secondary,80.2383692,13.0440819
Gopathi Narayanaswami Flyover,secondary,80.2407368,13.0453105
Gopathi Narayanaswami Flyover,secondary,80.2398166,13.0448741
Gopathi Narayanaswami Flyover,secondary,80.239856,13.0448147
Gopathi Narayanaswami Road,secondary,80.2422806,13.0462446
Rajiv Gandhi Salai,primary,80.2436326,12.9564715
,tertiary,80.1666646,12.981805
,tertiary,80.1638488,12.9810241
,tertiary,80.1639131,12.9808552
,tertiary,80.1648323,12.9807827
,tertiary,80.1643491,12.9810706
,tertiary,80.1634485,12.981858
Terminal Link Road,tertiary,80.1649734,12.9809885
,tertiary,80.1643046,12.981155
Terminal Link Road,tertiary,80.1600923,12.9785795
,tertiary,80.1683333,12.9830501
,tertiary,80.1668099,12.9816786
Airport Flyover,primary,80.1585339,12.9770335
3rd Main Road,tertiary,80.1766447,12.9857308
Terminal Link Road,tertiary,80.1600701,12.9787659
,tertiary,80.1971548,12.9887147
"2nd Avenue, Anna Nagar West",secondary,80.1986541,13.0854392
13th Main Road,tertiary,80.2003555,13.08526
Thirumangalam Flyover,primary,80.1985024,13.0825927
Thirumangalam Flyover,primary,80.1986428,13.0899825
2nd Avenue Anna Nagar,secondary,80.1986534,13.0853351
Vijayaraghava Road,tertiary,80.2409843,13.043953
Vijayaraghavachari Road,tertiary,80.2475944,13.0429215
Arcot Road,primary,80.1859977,13.0449255
Lakshmanasamy Salai,tertiary,80.2024053,13.0384797
CP Ramaswamy Road,secondary,80.2564883,13.0289174
T T Krishnamachari Road,secondary,80.2501638,13.0293291
Pasumpon Muthuramalingar Thevar Salai,secondary,80.2486157,13.0291167
St. Mary's Road,secondary,80.2564883,13.0289174
1st Main Road,tertiary,80.2539777,13.0291172
Luz Church Road,secondary,80.2639776,13.037609
,tertiary_link,80.2735553,13.0238233
,primary_link,80.197932,13.0872932
Jawaharlal Nehru Road (100 Feet Road),primary,80.198596,13.0824692
Jawaharlal Nehru Road (100 Feet Road),primary,80.1988056,13.0783035
Thirumangalam Flyover,primary,80.198633,13.0887007
Thirumangalam Flyover,primary,80.1985389,13.0846173
Jawaharlal Nehru Road (100 Feet Road),primary,80.1986955,13.0901979
Jawaharlal Nehru Road (100 Feet Road),primary,80.1985064,13.090183
Thirumangalam Flyover,primary,80.198588,13.0846172
Thirumangalam Flyover,primary,80.1985475,13.0887059
18th Main Road,tertiary,80.2007016,13.0948177
Raja Muthiah Road,secondary,80.2698748,13.0885645
SIDCO Industrial Estate South Phase Road,secondary,80.2042207,13.0137092
,secondary,80.2423025,13.069279
,secondary,80.233896,13.083553
New Avadi Road,secondary,80.2338497,13.0832712
Kilpauk Garden Road,secondary,80.2336472,13.0834988
,secondary,80.2336472,13.0834988
Barnaby Road,primary,80.245762,13.0794832
,tertiary,80.2184816,12.9023468
,tertiary,80.2182323,12.9018165
Semmozhi Salai,primary,80.2129143,12.9034462
OMR Service Road,tertiary,80.2410613,12.9495367
OMR Service Road,tertiary,80.241318,12.9503633
OMR Service Road,tertiary,80.2420093,12.9524031
OMR Service Road,tertiary,80.2428703,12.9545165
OMR Service Road,tertiary,80.24296,12.9549503
,tertiary,80.2325778,12.932736
,tertiary,80.2317605,12.9301212
,tertiary,80.231285,12.9276509
Gengu Reddy Subway,secondary,80.251737,13.0783113
Taramani Link Road,primary,80.2283547,12.9803508
Taramani Link Road,primary_link,80.2525381,12.9795568
Pantheon Road,secondary,80.2627689,13.07472
Gandhi Irwin Road,secondary,80.2600535,13.0764883
Service Road,primary_link,80.1668099,12.9816786
,tertiary,80.238891,13.0323428
West Avenue Road,primary,80.2533327,12.9879629
Sardar Patel Road,primary,80.2231983,13.0114299
,primary_link,80.2038422,13.0094243
Haddows Road,primary,80.2465261,13.0618088
Taluk Office Road,primary,80.2268495,13.0129116
,tertiary,80.2191706,12.905874
Grand Southern Trunk Road,primary,80.1958141,13.0014259
,tertiary,80.235742,12.9401463
OMR Service Road,tertiary,80.2415032,12.9509128
,secondary,80.2401197,13.0309119
,secondary,80.2397529,13.0311984
Thiruvalluvar Road,primary,80.2594411,12.9841207
Elcot SEZ Main road,tertiary,80.2194496,12.9082081
,tertiary_link,80.2194496,12.9082081
Anna Salai (Mount Road),primary,80.262979,13.062124
Anna Salai (Mount Road),primary,80.2657723,13.0644254
Thiru Vi Ka Road,tertiary,80.2577403,13.0577051
,primary_link,80.2595336,12.984273
Whites Road,secondary,80.2635995,13.0578594
Pasumpon Muthuramalingar Thevar Salai,secondary,80.2496656,13.0288813
Pasumpon Muthuramalingar Thevar Salai,secondary,80.2497931,13.0289
Anna Salai (Mount Road),primary,80.2212602,13.012364
Anna Salai (Mount Road),primary,80.2214953,13.0124371
,secondary_link,80.2793323,13.0845727
Frazer Bridge Road,tertiary_link,80.2838377,13.0851331
,primary_link,80.2501241,12.9944672
Arcot Road,primary,80.2114763,13.0498745
Jawaharlal Nehru Road,tertiary,80.2121907,13.0499866
NSK Salai,primary,80.2167055,13.0513071
Nagerkoyil Sudalaimuthu Krishnan (NSK) Salai,primary,80.2134474,13.0500979
Jawaharlal Nehru Road,tertiary,80.2122029,13.0495518
,tertiary,80.2146095,13.0506076
Lakshmanasamy Salai,tertiary,80.2043866,13.0381932
,tertiary,80.2289537,13.0412959
Anna Salai,primary,80.2764982,13.0737818
,primary,80.2500057,12.9099984
East Coast Road,primary,80.2511572,12.9199943
Wallajah Road,secondary,80.283516,13.0641519
Annasalai Street,tertiary,80.2340915,13.0311927
Jawaharlal Nehru Road (100 Feet Road),primary,80.2118795,13.0525097
Vadapalani Flyover,primary,80.2120697,13.0524205
Vadapalani Flyover,primary,80.2120249,13.0519173
Vadapalani Flyover,primary,80.2121734,13.0519341
Jawaharlal Nehru Road,primary,80.2122822,13.0475223
Jawaharlal Nehru Road (100 Feet Road),tertiary,80.2121042,13.0475073
Vadapalani Flyover,primary,80.2122002,13.0482862
Monegar Choultry Road,tertiary,80.2865524,13.105289
Monegar Choultry Road,tertiary,80.2862219,13.1072586
Monegar Choultry Road,tertiary,80.2862876,13.1075551
,primary_link,80.2284818,13.0244507
,primary,80.1952693,12.9123854
,primary_link,80.2513174,13.0523801
,tertiary,80.2582994,13.1444301
,primary_link,80.2066346,12.9761665
Vadakkapattu main road,tertiary,80.1823393,12.9354392
,primary_link,80.1308831,13.0396998
Jawaharlal Nehru Road (100 Feet Road),primary,80.1985128,13.0930485
Jawaharlal Nehru Road (100 Feet Road),primary,80.1987468,13.0930149
Whites Road,secondary,80.2627486,13.0577758
,primary_link,80.2802805,13.1054795
Old Jail Road,primary,80.2820646,13.1054497
Mint Flyover,primary,80.2820369,13.105382
Mint Flyover,primary,80.2819677,13.1054576
Basin Bridge Road,primary,80.2774403,13.1049876
Mint Flyover,primary,80.2772529,13.1049883
Basin Bridge Road,primary,80.2768912,13.1047974
Mint Flyover,primary,80.2775312,13.1050713
Mint Flyover,primary,80.2819598,13.1053922
Erukkancheri High Road,tertiary,80.2666068,13.1099239
Erukkancheri High Road,tertiary,80.2691327,13.1071903
Vyasarpadi Flyover,primary,80.2639487,13.1130749
Vyasarpadi Flyover,primary,80.2684511,13.1079879
Vyasarpadi Flyover,primary,80.2690288,13.1073012
Basin Bridge,primary,80.2710929,13.1050779
Basin Bridge,primary,80.2710271,13.1050415
Basin Bridge,primary,80.2714728,13.104467
,primary,80.2708505,13.1043437
,primary,80.2711924,13.1043659
,primary,80.2714042,13.1044141
,primary,80.2711469,13.1044426
Basin Bridge,primary,80.2717072,13.1043329
Basin Bridge,primary,80.2709821,13.1053305
Basin Bridge,primary,80.2712443,13.1045201
Basin Bridge,primary,80.2731425,13.1038618
Basin Bridge,primary,80.2726184,13.1038517
Basin Bridge Road,primary,80.2734878,13.1038925
Vyasarpadi Flyover,primary,80.2656725,13.113977
Sathyamoorty Nagar Main Road,tertiary,80.2656726,13.1141203
Erukkancheri High Road,primary,80.2636549,13.1135249
Anna Arch Road,secondary_link,80.2185537,13.0750052
Anna Arch Flyover,secondary,80.2185394,13.0748996
Anna Arch Flyover,secondary,80.2178838,13.0775983
Anna Arch Flyover Ramp,secondary_link,80.2179621,13.0758599
Anna Salai (Mount Road),primary,80.2747056,13.0719588
,tertiary,80.137061,13.0368125
Perungudi Station Road,tertiary,80.2236295,12.9683229
,tertiary,80.278722,13.1286691
,primary_link,80.1936376,12.9486187
Semmozhi Salai,primary,80.1941101,12.9173229
,primary_link,80.1918002,12.91108
,tertiary,80.1668305,12.9814302
Gopathi Narayanaswami Road,secondary,80.2469772,13.0491993
Mahalingapuram Main Road,secondary,80.2372093,13.0581145
,secondary_link,80.221904,13.0091239
Nanganallur 4th Main Road,tertiary,80.1882386,12.9864957
Rukmani Lakshmipathi Road,tertiary,80.2612193,13.0729209
Rukmani Lakshmipathi Road,tertiary,80.2611099,13.0712493
,tertiary,80.2453961,13.0478914
2nd Avenue,secondary,80.2124429,13.0443017
,secondary_link,80.2091986,13.0352977
,secondary_link,80.2462767,13.0486304
Nanganallur 4th Main Road,tertiary,80.1884468,12.9830017
Burkit Road,secondary,80.2304109,13.0350262
,tertiary,80.192902,13.0376334
,primary_link,80.2023768,13.0719181
,secondary_link,80.2180554,13.0760246
,primary_link,80.2034662,12.9785453
,secondary_link,80.2208523,13.0740453
,secondary_link,80.2229797,13.0711607
,tertiary,80.1943295,13.0744239
,secondary_link,80.2185305,13.0015861
,primary_link,80.1988083,12.9806949
,tertiary,80.194784,13.0692552
Nanganallur Road,tertiary,80.1855455,12.9937882
,tertiary,80.2372698,12.943698
,tertiary,80.2414477,12.9516043
,tertiary,80.2377551,12.9489054
,tertiary,80.236981,12.9461481
,tertiary,80.1914605,13.0659028
Anna Salai (Mount Road),primary,80.267641,13.0657269
Montieth Road,secondary,80.2601255,13.0665644
,secondary,80.2604418,13.066532
,tertiary,80.227473,12.8895706
,tertiary,80.2264155,12.8701747
Old Trunk Road,tertiary,80.1537281,12.9725475
Old Trunk Road,tertiary,80.1535306,12.9723006
,tertiary,80.2569785,13.0458861
,tertiary,80.2373217,13.0798682
,primary_link,80.1916378,13.0741075
,tertiary,80.1666476,12.9815864
13th Main Road,tertiary,80.2004018,13.0870367
College Road,secondary,80.2477466,13.0679245
College Road,secondary,80.2514749,13.0673215
,secondary,80.2518807,13.0673469
,secondary_link,80.2549746,13.0674383
Gandhi Irwin Road,secondary,80.2633186,13.0781006
,primary_link,80.1628777,12.980061
,tertiary,80.1866583,12.9267482
1st Main Road,tertiary,80.2039608,13.1206445
,tertiary,80.2007118,13.11806
,tertiary,80.2297546,12.9160892
,primary_link,80.2420139,13.0526973
,primary,80.2298244,12.9171515
Pandian salai,tertiary,80.2485396,12.9495699
Pandian salai,tertiary,80.2487833,12.9495382
,primary_link,80.2526999,12.9387394
,tertiary,80.2440923,12.9579758
Marudupandi Street,tertiary,80.2146524,12.9892378
Velachery Bypass Road,primary,80.2183244,12.987429
Velachery Bypass Road,primary,80.2182983,12.9872854
,secondary_link,80.2568352,13.0011421
,secondary_link,80.2565789,13.0015953
,tertiary,80.2515902,12.9865507
,tertiary,80.2341317,12.9367876
70 Feet Road,secondary,80.2271665,13.0284037
Reddy Kuppam Road,secondary,80.2243631,13.0284035
,tertiary,80.202002,12.8803386
Rukmani Lakshmipathi Road,secondary,80.260193,13.0638777
Ethiraj Salai,secondary,80.2602115,13.0637768
,tertiary,80.2278937,12.8979166
,tertiary,80.230967,12.9250802
,tertiary,80.2310675,12.9265679
,secondary,80.2036461,13.1037999
,tertiary,80.2321928,12.9324746
Bazulla Flyover,tertiary,80.229516,13.0451796
Railway Border Road,tertiary,80.2294744,13.0452084
Sullivan Garden Road,secondary,80.2676365,13.0368163
Medavakkam Tank Road,secondary,80.2451619,13.0856484
Medavakkam Tank Road,secondary,80.2447212,13.0861936
,tertiary,80.2306133,12.923007
Santhome High Road,primary,80.2736556,13.0237866
Santhome High Road,primary,80.2739707,13.0240343
Santhome High Road,primary,80.2735553,13.0238233
Santhome High Road,primary,80.2722103,13.022825
Gandhi Mandapam Flyover,primary,80.2428757,13.0066016
Valluvar Road,secondary,80.1830844,13.0241328
Valluvar Road,secondary,80.1834168,13.0215764
Dr Ambedkar Road,secondary,80.2187458,13.0467597
,tertiary,80.1975219,12.9885941
,tertiary,80.1973173,12.9886613
Pilkington Road,tertiary,80.24043,13.1026433
Nookampalayam Road,tertiary,80.1977277,12.8940158
Nookampalayam Road,tertiary,80.1977612,12.8943523
,primary_link,80.2363159,12.9496391
Konnur High Road,secondary,80.2030665,13.1037051
SIDCO Industrial Road,tertiary,80.1992517,13.1032602
,tertiary,80.2298796,12.919109
,primary_link,80.2476619,13.0066597
,tertiary,80.185325,12.9891528
4th Avenue (Santhi Colony Road),tertiary,80.217808,13.0821773
4th Avenue (Santhi Colony Road),tertiary,80.2100982,13.0824526
Swami Sivananda Salai,secondary,80.2743746,13.0717936
,primary_link,80.2739583,13.0722422
Deputy Mayor Kabalamurthy Road,secondary,80.2744964,13.0715696
Balaji Nagar Main Road,tertiary,80.2041916,12.9786865
,tertiary,80.2297475,12.9179747
Sir Thyagaraya Road,secondary,80.2468172,13.0391271
Station Road,primary,80.2005058,13.0015169
,primary_link,80.2626935,13.0624721
General Patters Road,secondary,80.2676323,13.0654903
Mopparappan Street,tertiary,80.2370856,13.0317811
Mopparappan Street,tertiary,80.2369641,13.0341555
,secondary,80.2527726,12.9818778
Nookampalayam Link Road,tertiary,80.2110902,12.8795655
,primary_link,80.2315759,12.9297803
Perungudi station road,tertiary,80.2310906,12.9756064
,tertiary,80.2303971,13.0478002
,tertiary,80.2313784,12.9282648
Halls Road,secondary,80.2580748,13.0752085
,primary_link,80.2518245,12.9778666
,primary,80.2441689,13.1085888
,primary,80.2423005,13.1086934
,primary_link,80.2412538,12.8988985
,primary_link,80.2144,13.1311238
,tertiary,80.2144182,13.1307663
,tertiary,80.1500533,12.9696644
,tertiary,80.2696273,13.0206535
Taylors Road,tertiary,80.2375019,13.0803414
Taylors Road,tertiary,80.2375019,13.0803414
Santhome High Road,primary,80.2738735,13.0240671
Santhome High Road,primary,80.2752027,13.0258557
Strahans Road,secondary,80.2605066,13.0971437
Strahans Road,secondary,80.2605066,13.0971437
Ambedkar Kalloori Salai,secondary,80.2607865,13.1063601
,primary_link,80.251317,12.9883249
,secondary_link,80.2574399,13.0389562
,secondary,80.2318586,13.0407248
Doraiswamy Road,secondary,80.2317393,13.0405662
Wallajah Road,secondary,80.2783934,13.0647211
Wallajah Road,tertiary,80.2783915,13.0648674
,secondary,80.240283,13.0403606
Old Jail Road,primary,80.2840465,13.1050917
Old Jail Road,primary,80.2862631,13.104569
,primary_link,80.1957262,12.9866238
Velachery Main Road,secondary,80.2196467,12.9914776
Velachery Bypass Road,primary,80.2196467,12.9914776
,primary_link,80.2432111,13.0657719
Elcot SEZ Main road,tertiary,80.2183234,12.9023758
Panchayat Main Road,tertiary,80.242201,12.9653948
Kilpauk Garden Road,tertiary,80.2495103,13.0813548
Copper Beach Road,tertiary,80.2460943,12.8920917
East Coast Road,primary,80.2473747,12.8971781
Pantheon Road Flyover,secondary,80.2584729,13.0709678
,tertiary_link,80.1945986,13.0744508
Annasalai Street,tertiary,80.234078,13.031443
Netaji Subhash Chandra Bose Road,secondary,80.2838631,13.0883365
General Hospital Road,primary,80.2751566,13.0816211
Royapettah High Road,secondary,80.2638228,13.0523599
Alwarpet Flyover,secondary,80.2567322,13.0380885
Gandhi Mandapam Road,secondary,80.2403241,13.0069116
Sardar Patel Road,primary_link,80.2403241,13.0069116
Rajiv Gandhi Salai,primary,80.2504278,12.9736532
Peeliamman Koil Street,tertiary,80.2406319,12.9854059
Sardar Patel Road,primary,80.2428614,13.0067102
Pasumpon Muthuramalingar Thevar Salai,secondary,80.2457626,13.0295538
Kathipara Interchange Flyover,primary,80.2015108,13.0051251
Kathipara Interchange Flyover,primary,80.20395,13.0122444
Kathipara Interchange Flyover,primary,80.2038377,13.008284
PVK Koil Street,tertiary,80.2744494,13.0417812
PVK Koil Street,tertiary,80.2744133,13.0412325
General Hospital Road,primary,80.2747988,13.0815952
General Hospital Road,primary,80.2747888,13.0816988
General Hospital Road,primary,80.2750642,13.081602
Chennai - Ennore Expressway Road,primary,80.2996509,13.1431769
,primary_link,80.2453386,12.8842757
,tertiary,80.2522824,12.8910211
,primary_link,80.2504002,12.9145818
Ottiambakkam Road,tertiary,80.1838206,12.8925681
Chennai Port Entry Road,tertiary,80.3091548,13.1671974
,tertiary,80.1299109,12.9972011
Nelson Manickam Road,secondary,80.2276678,13.0671494
Nelson Manickam Road,secondary,80.2282336,13.0668892
Nelson Manickam Road,secondary,80.2282371,13.0669739
Nelson Manickam Road,secondary,80.2277555,13.0671885
Nelson Manickam Road,secondary,80.2353731,13.0635832
,tertiary,80.2973089,13.1348211
